[
  {
    "name": "Accomack GD",
    "locality": "Accomack",
    "type": "General District",
    "district": "2A Judicial District",
    "clerk": "Francina Violet Chisum",
    "phone": "757/787-0923",
    "fax": "757-787-5619",
    "email": null,
    "address": "P. O. Box 276, 23371 Front Street",
    "city": "Accomac",
    "state": "VA",
    "zip": "23301",
    "hours": "8:30AM - 4:30PM",
    "homepage": "https://www.vacourts.gov/courts/gd/accomack/home",
    "judges": ["Patrick A. Robbins, Chief Judge", "James M Haynes Jr."]
  },
  {
    "name": "Accomack JDR",
    "locality": "Accomack",
    "type": "Juvenile & Domestic Relations",
    "district": "2A Judicial District",
    "clerk": "Roland Clifton Leighton",
    "phone": "757/787-0920",
    "fax": "757-787-4526",
    "email": null,
    "address": "P. O. Box 299, 23371 Front Street",
    "city": "Accomac",
    "state": "VA",
    "zip": "23301",
    "hours": "8:30AM - 4:30PM",
    "homepage": "https://www.vacourts.gov/courts/jdr/accomack/home",
    "judges": ["Cela J. Burge, Chief Judge, Presiding Judge"]
  },
  {
    "name": "Albemarle GD",
    "locality": "Albemarle",
    "type": "General District",
    "district": "Sixteenth Judicial District",
    "clerk": "Leola McKenzie Coles Morse",
    "phone": "434/972-4004",
    "phones": {
      "Civil": "434-972-4007"
    },
    "fax": "434/972-4092",
    "email": "albemarlegd@vacourts.gov",
    "address": "350 Park Street",
    "city": "Charlottesville",
    "state": "VA",
    "zip": "22902",
    "hours": "8:00AM - 4:00PM",
    "homepage": "https://www.vacourts.gov/courts/gd/albemarle/home",
    "judges": [
      "Matthew J. Quatrara, Presiding Judge",
      "Claiborne H. Stokes Jr., Chief Judge",
      "Theresa W. Carter",
      "Kenneth Andrew Sneathern"
    ]
  },
  {
    "name": "Albemarle/Charlottesville JDR",
    "locality": "Albemarle/Charlottesville",
    "type": "Juvenile & Domestic Relations",
    "district": "Sixteenth Judicial District",
    "clerk": "Stephanie Michelle Bunch",
    "phone": "434/979-7165",
    "fax": "434/293-0211",
    "email": null,
    "address": "411 E. High Street",
    "city": "Charlottesville",
    "state": "VA",
    "zip": "22902",
    "hours": "8:00AM - 4:00PM",
    "homepage": "https://www.vacourts.gov/courts/jdr/albemarle/home",
    "judges": [
      "Deborah S. Tinsley, Chief Judge",
      "Peter K. Griffith",
      "Kara L. Larson",
      "Barbara G. Lowe",
      "Ronald L. Morris",
      "Areshini Pather"
    ]
  },
  {
    "name": "Alexandria GD",
    "locality": "Alexandria",
    "type": "General District",
    "district": "Eighteenth Judicial District",
    "clerk": "Marion W. Jackson",
    "phone": "703/746-4041",
    "phones": {
      "Traffic": "703/746-4041",
      "Criminal": "703/746-4030",
      "Civil": "703/746-4021"
    },
    "fax": null,
    "email": null,
    "address": "520 King Street, Second Floor, P. O. Box 320489",
    "city": "Alexandria",
    "state": "VA",
    "zip": "22320",
    "hours": "8:00AM - 4:00PM",
    "homepage": "https://www.vacourts.gov/courts/gd/alexandria/home",
    "judges": ["Donald M. Haddock Jr., Chief Judge", "Sonya L. Sacks"]
  },
  {
    "name": "Alexandria JDR",
    "locality": "Alexandria",
    "type": "Juvenile & Domestic Relations",
    "district": "Eighteenth Judicial District",
    "clerk": "Suellen Kathleen Gardner",
    "phone": "703/746-4141",
    "fax": "703/838-4092",
    "email": "suegardner@vacourts.gov",
    "address": "520 King Street, 1st floor",
    "city": "Alexandria",
    "state": "VA",
    "zip": "22314",
    "hours": "8:00AM - 4:00PM",
    "homepage": "https://www.vacourts.gov/courts/jdr/alexandria/home",
    "judges": [
      "Sean A. Sherlock, Chief Judge, Presiding Judge",
      "Thomas Kevin Cullen, Presiding Judge"
    ]
  },
  {
    "name": "Alleghany GD & JDR",
    "locality": "Alleghany",
    "type": "Combined District",
    "district": "Twenty-fifth Judicial District",
    "clerk": "Felicia Nelson",
    "phone": "540/965-1720",
    "fax": "540/965-1722",
    "email": null,
    "address": "P. O. Box 139, 266 West Main Street",
    "city": "Covington",
    "state": "VA",
    "zip": "24426",
    "hours": "8:00AM - 4:00PM",
    "homepage": "https://www.vacourts.gov/courts/combined/alleghany/home",
    "judges": [
      "Robin J. Mayer, Presiding Judge",
      "Christopher M. Billias, Chief Judge",
      "Rupen R. Shah",
      "David Browning Spigle",
      "Linda Schorsch Jones, Chief Judge",
      "Robert C. Hagan Jr.",
      "Lethia C. Hammond",
      "Susan B. Read",
      "Correy R. Smith"
    ]
  },
  {
    "name": "Amelia GD & JDR",
    "locality": "Amelia",
    "type": "Combined District",
    "district": "Eleventh Judicial District",
    "clerk": "Melissa B. Gil",
    "phone": "804/561-2456",
    "fax": "804/561-6956",
    "email": null,
    "address": "16441 Court Street, P. O. Box 24",
    "city": "Amelia",
    "state": "VA",
    "zip": "23002",
    "hours": "8:30AM - 4:30PM",
    "homepage": "https://www.vacourts.gov/courts/combined/amelia/home",
    "judges": [
      "Thomas Stark IV, Chief Judge, Presiding Judge",
      "Kenneth A. Blalock",
      "Brian H. Jones",
      "Theresa J. Royall, Presiding Judge",
      "Cheryl J. Wilson, Chief Judge",
      "Phillip T. DiStanislao"
    ]
  },
  {
    "name": "Amherst GD",
    "locality": "Amherst",
    "type": "General District",
    "district": "Twenty-fourth Judicial District",
    "clerk": "Margaret Cash",
    "phone": "434/946-9351",
    "fax": "434/946-9359",
    "email": "mcash@vacourts.gov",
    "address": "P. O. Box 513, 113 Taylor Street",
    "city": "Amherst",
    "state": "VA",
    "zip": "24521",
    "hours": "8:00AM - 4:00PM",
    "homepage": "https://www.vacourts.gov/courts/gd/amherst/home",
    "judges": [
      "Sam Daniel Eggleston III, Chief Judge",
      "Randy C. Krantz",
      "Stephanie S. Maddox"
    ]
  },
  {
    "name": "Amherst JDR",
    "locality": "Amherst",
    "type": "Juvenile & Domestic Relations",
    "district": "Twenty-fourth Judicial District",
    "clerk": "Karen Coleman King",
    "phone": "434/946-9355",
    "fax": "434/946-9374",
    "email": "KKing@vacourts.gov",
    "address": "P. O. Box 178, 113 Taylor Street",
    "city": "Amherst",
    "state": "VA",
    "zip": "24521",
    "hours": "8:00AM - 4:00PM",
    "homepage": "https://www.vacourts.gov/courts/jdr/amherst/home",
    "judges": [
      "Jennifer E. Stille, Chief Judge",
      "Eugene N. Butler",
      "Brooke Taylor Willse Gaddy",
      "Robert Louis Harrison Jr.",
      "Stephanie Mutter-Ayers",
      "H. Cary Payne"
    ]
  },
  {
    "name": "Appomattox GD",
    "locality": "Appomattox",
    "type": "General District",
    "district": "Tenth Judicial District",
    "clerk": "Jeannie Watin Hamlet",
    "phone": "434/352-5540",
    "fax": "434/352-0717",
    "email": "JHamlet@vacourts.gov",
    "address": "P. O. Box 187, 297 Court Street, Second Floor",
    "city": "Appomattox",
    "state": "VA",
    "zip": "24522",
    "hours": "8:30AM - 4:30PM",
    "homepage": "https://www.vacourts.gov/courts/gd/appomattox/home",
    "judges": [
      "Calvin S. Spencer Jr., Chief Judge",
      "Jody H. Fariss",
      "Darrel W. Puckett"
    ]
  },
  {
    "name": "Appomattox JDR",
    "locality": "Appomattox",
    "type": "Juvenile & Domestic Relations",
    "district": "Tenth Judicial District",
    "clerk": "Cheri W. Morgan",
    "phone": "434/352-8225",
    "fax": "434/352-8635",
    "email": "CMorgan@vacourts.gov",
    "address": "Courthouse, Second Floor, 297 Court Street, P. O. Box 26",
    "city": "Appomattox",
    "state": "VA",
    "zip": "24522",
    "hours": "8:30AM - 4:30PM",
    "homepage": "https://www.vacourts.gov/courts/jdr/appomattox/home",
    "judges": [
      "Marvin H. Dunkum Jr., Chief Judge, Presiding Judge",
      "Brendan U. Dunning",
      "Nora J. Miller"
    ]
  },
  {
    "name": "Arlington GD",
    "locality": "Arlington",
    "type": "General District",
    "district": "Seventeenth Judicial District",
    "clerk": "Brian P. Henshaw",
    "phone": "703/228-7900",
    "fax": null,
    "email": null,
    "address": "1425 North Courthouse Road, Suite 2400, Second Floor",
    "city": "Arlington",
    "state": "VA",
    "zip": "22201",
    "hours": "8:00AM - 4:00PM",
    "homepage": "https://www.vacourts.gov/courts/gd/arlington/home",
    "judges": [
      "Jason S. Rucker, Chief Judge",
      "Adam M. Krischer",
      "Cari Michele Steele"
    ]
  },
  {
    "name": "Arlington JDR",
    "locality": "Arlington",
    "type": "Juvenile & Domestic Relations",
    "district": "Seventeenth Judicial District",
    "clerk": "Teresa Elizabeth Lara",
    "phone": "703/228-4495",
    "fax": "703-228-7169",
    "email": null,
    "address": "1425 North Courthouse Rd, Ste 4100, Arlington County Justice Center",
    "city": "Arlington",
    "state": "VA",
    "zip": "22201",
    "hours": "8:00AM - 4:00PM",
    "homepage": "https://www.vacourts.gov/courts/jdr/arlington/home",
    "judges": [
      "Robin L. Robb Kendrick, Chief Judge, Presiding Judge",
      "W. Michael Chick Jr."
    ]
  },
  {
    "name": "Augusta GD",
    "locality": "Augusta",
    "type": "General District",
    "district": "Twenty-fifth Judicial District",
    "clerk": "Amy Arehart Helmick",
    "phone": "540/245-5300",
    "fax": "540/245-5365",
    "email": null,
    "address": "6 East Johnson Street, Second Floor",
    "city": "Staunton",
    "state": "VA",
    "zip": "24401",
    "hours": "8:00AM - 4:00PM",
    "homepage": "https://www.vacourts.gov/courts/gd/augusta/home",
    "judges": [
      "Christopher M. Billias, Chief Judge",
      "Robin J. Mayer",
      "Rupen R. Shah",
      "David Browning Spigle"
    ]
  },
  {
    "name": "Augusta JDR",
    "locality": "Augusta",
    "type": "Juvenile & Domestic Relations",
    "district": "Twenty-fifth Judicial District",
    "clerk": "Callie Kay Bailey",
    "phone": "540/245-5306",
    "fax": "540/245-5349",
    "email": "CBailey@vacourts.gov",
    "address": "6 E. Johnson St. 1st Fl.",
    "city": "Staunton",
    "state": "VA",
    "zip": "24401",
    "hours": "8:00AM - 4:00PM",
    "homepage": "https://www.vacourts.gov/courts/jdr/augusta/home",
    "judges": [
      "Linda Schorsch Jones, Chief Judge",
      "Robert C. Hagan Jr.",
      "Lethia C. Hammond",
      "Susan B. Read",
      "Correy R. Smith"
    ]
  },
  {
    "name": "Bath GD & JDR",
    "locality": "Bath",
    "type": "Combined District",
    "district": "Twenty-fifth Judicial District",
    "clerk": "Meghan Cugler",
    "phone": "540/839-7241",
    "fax": "540/839-7242",
    "email": null,
    "address": "P. O. Box 96, Courthouse, Physical Address: 65, Courthouse Hill Road, Warm",
    "city": "Springs",
    "state": "VA",
    "zip": "24484",
    "hours": "8:30AM - 4:30PM",
    "homepage": "https://www.vacourts.gov/courts/combined/bath/home",
    "judges": [
      "Christopher M. Billias, Chief Judge",
      "Robin J. Mayer",
      "Rupen R. Shah",
      "David Browning Spigle",
      "Linda Schorsch Jones, Chief Judge",
      "Robert C. Hagan Jr.",
      "Lethia C. Hammond",
      "Susan B. Read",
      "Correy R. Smith"
    ]
  },
  {
    "name": "Bedford GD",
    "locality": "Bedford",
    "type": "General District",
    "district": "Twenty-fourth Judicial District",
    "clerk": "Ashley Richards Schley",
    "phone": "540/586-7637",
    "fax": "540/586-7684",
    "email": "aschley@vacourts.gov",
    "address": "123 East Main Street, Suite 202",
    "city": "Bedford",
    "state": "VA",
    "zip": "24523",
    "hours": "8:00AM - 4:00PM",
    "homepage": "https://www.vacourts.gov/courts/gd/bedford/home",
    "judges": [
      "Randy C. Krantz, Presiding Judge",
      "Stephanie S. Maddox, Presiding Judge",
      "Sam Daniel Eggleston III, Chief Judge"
    ]
  },
  {
    "name": "Bedford JDR",
    "locality": "Bedford",
    "type": "Juvenile & Domestic Relations",
    "district": "Twenty-fourth Judicial District",
    "clerk": "Stacey T. Arrington",
    "phone": "540/586-7641",
    "fax": "540/587-9395",
    "email": null,
    "address": "123 East Main Street, Suite 101",
    "city": "Bedford",
    "state": "VA",
    "zip": "24523",
    "hours": "8:00AM - 4:00PM",
    "homepage": "https://www.vacourts.gov/courts/jdr/bedford/home",
    "judges": [
      "Robert Louis Harrison Jr., Presiding Judge",
      "Jennifer E. Stille, Chief Judge",
      "Eugene N. Butler",
      "Brooke Taylor Willse Gaddy",
      "Stephanie Mutter-Ayers",
      "H. Cary Payne"
    ]
  },
  {
    "name": "Bland GD & JDR",
    "locality": "Bland",
    "type": "Combined District",
    "district": "Twenty-seventh Judicial District",
    "clerk": "Vicky Graham Reedy",
    "phone": "276/688-4433",
    "fax": "276/688-4789",
    "email": null,
    "address": "612 Main Street, Suite 106, P. O. Box 157",
    "city": "Bland",
    "state": "VA",
    "zip": "24315",
    "hours": "8:00AM - 4:00PM",
    "homepage": "https://www.vacourts.gov/courts/combined/bland/home",
    "judges": [
      "Gino W. Williams, Presiding Judge",
      "Gerald Eugene Mabe II, Chief Judge",
      "J. D. Bolt",
      "Erin J. DeHart",
      "Randal J. Duncan",
      "Bradley G Dalton, Chief Judge",
      "Howard Lee Chitwood",
      "Monica D. Cox",
      "Ryan D. Hamrick",
      "Stephanie Murray Shortt"
    ]
  },
  {
    "name": "Botetourt JDR",
    "locality": "Botetourt",
    "type": "Juvenile & Domestic Relations",
    "district": "Twenty-fifth Judicial District",
    "clerk": "Pamela Lynne Jarvis",
    "phone": "540/928-2280",
    "fax": "540/473-1023",
    "email": null,
    "address": "20 E. Back Street, Suite B",
    "city": "Fincastle",
    "state": "VA",
    "zip": "24090",
    "hours": "8:00AM - 4:00PM",
    "homepage": "https://www.vacourts.gov/courts/jdr/botetourt/home",
    "judges": [
      "Linda Schorsch Jones, Chief Judge",
      "Robert C. Hagan Jr.",
      "Lethia C. Hammond",
      "Susan B. Read",
      "Correy R. Smith"
    ]
  },
  {
    "name": "Botetourt GD",
    "locality": "Botetourt",
    "type": "General District",
    "district": "Twenty-fifth Judicial District",
    "clerk": "Lisa Michelle Browning",
    "phone": "540/928-2270",
    "fax": "540/473-8344",
    "email": null,
    "address": "20 E. Back Street, Suite A, P.O. Box 858",
    "city": "Fincastle",
    "state": "VA",
    "zip": "24090",
    "hours": "8:00AM - 4:00PM",
    "homepage": "https://www.vacourts.gov/courts/gd/botetourt/home",
    "judges": [
      "Christopher M. Billias, Chief Judge",
      "Robin J. Mayer",
      "Rupen R. Shah",
      "David Browning Spigle"
    ]
  },
  {
    "name": "Bristol GD",
    "locality": "Bristol",
    "type": "General District",
    "district": "Twenty-eighth Judicial District",
    "clerk": "Kathy Jean Trotter",
    "phone": "276/645-7341",
    "phones": {
      "other": "276/645-7340"
    },
    "fax": "276/645-7342",
    "email": null,
    "address": "497 Cumberland Street, RM 208",
    "city": "Bristol",
    "state": "VA",
    "zip": "24201",
    "hours": "8:15AM - 4:15PM",
    "homepage": "https://www.vacourts.gov/courts/gd/bristol/home",
    "judges": ["Travis B. Lee, Chief Judge", "Robert L. Hobbs", "Suzan E Moore"]
  },
  {
    "name": "Bristol JDR",
    "locality": "Bristol",
    "type": "Juvenile & Domestic Relations",
    "district": "Twenty-eighth Judicial District",
    "clerk": "Penny Pickel Fuqua",
    "phone": "276/645-7325",
    "fax": "276/645-7324",
    "email": null,
    "address": "Courthouse, Suite 107, 497 Cumberland Street",
    "city": "Bristol",
    "state": "VA",
    "zip": "24201",
    "hours": "8:00AM - 4:00PM",
    "homepage": "https://www.vacourts.gov/courts/jdr/bristol/home",
    "judges": ["Joseph B. Lyle, Chief Judge", "Richard S. Buddington Jr."]
  },
  {
    "name": "Brunswick GD & JDR",
    "locality": "Brunswick",
    "type": "Combined District",
    "district": "Sixth Judicial District",
    "clerk": "Susan Evans Martin",
    "phone": "434/848-2315",
    "phones": {
      "GDC": "434-848-2315",
      "JDR": "434-623-3220"
    },
    "fax": "434/848-2550",
    "email": null,
    "address": "Albertis S. Harrison Jr. Courthouse, 202 North Main Street",
    "city": "Lawrenceville",
    "state": "VA",
    "zip": "23868",
    "hours": "8:00AM - 4:00PM",
    "homepage": "https://www.vacourts.gov/courts/combined/brunswick/home",
    "judges": [
      "Lyndia P. Ramsey, Chief Judge",
      "Peter D. Eliades",
      "Elbert D. Mumphery",
      "William S Newsome",
      "Patricia T Watson",
      "Christopher B. Ackerman, Presiding Judge",
      "Jacqueline R. Waymack, Chief Judge",
      "Robert John Fierro Jr."
    ]
  },
  {
    "name": "Buchanan GD & JDR",
    "locality": "Buchanan",
    "type": "Combined District",
    "district": "Twenty-ninth Judicial District",
    "clerk": "Judith M. Lyall",
    "phone": "276/935-6526",
    "fax": "276/935-5479",
    "email": null,
    "address": "P. O. Box 654, Physical Address: 1012 Walnut, Street, Suite 309, Grundy, VA",
    "city": "Grundy",
    "state": "VA",
    "zip": "24614-0654",
    "hours": "8:00AM - 4:00PM",
    "homepage": "https://www.vacourts.gov/courts/combined/buchanan/home",
    "judges": [
      "George Robert Brittain, Chief Judge",
      "Martha P. Ketron, Chief Judge",
      "Michael J. Bush",
      "Laura F. O'Quinn"
    ]
  },
  {
    "name": "Buckingham GD & JDR",
    "locality": "Buckingham",
    "type": "Combined District",
    "district": "Tenth Judicial District",
    "clerk": "Danelle Bagley",
    "phone": "434/969-4755",
    "fax": "434/969-1762",
    "email": null,
    "address": "13049 W. James Anderson Hwy., P.O. Box 127",
    "city": "Buckingham",
    "state": "VA",
    "zip": "23921",
    "hours": "8:00AM - 4:15PM",
    "homepage": "https://www.vacourts.gov/courts/combined/buckingham/home",
    "judges": [
      "Calvin S. Spencer Jr., Chief Judge",
      "Jody H. Fariss",
      "Darrel W. Puckett",
      "Marvin H. Dunkum Jr., Chief Judge, Presiding Judge",
      "Brendan U. Dunning",
      "Nora J. Miller"
    ]
  },
  {
    "name": "Buena Vista GD & JDR",
    "locality": "Buena Vista",
    "type": "Combined District",
    "district": "Twenty-fifth Judicial District",
    "clerk": "R. Michael Cary",
    "phone": "540/264-2163",
    "fax": "540/261-2343",
    "email": null,
    "address": "2039 Sycamore Avenue",
    "city": "Buena Vista",
    "state": "VA",
    "zip": "24416",
    "hours": "8:00AM - 4:30PM",
    "homepage": "https://www.vacourts.gov/courts/combined/buena_vista/home",
    "judges": [
      "Robin J. Mayer, Presiding Judge",
      "Christopher M. Billias, Chief Judge",
      "Rupen R. Shah",
      "David Browning Spigle",
      "Linda Schorsch Jones, Chief Judge",
      "Robert C. Hagan Jr.",
      "Lethia C. Hammond",
      "Susan B. Read",
      "Correy R. Smith"
    ]
  },
  {
    "name": "Campbell GD",
    "locality": "Campbell",
    "type": "General District",
    "district": "Twenty-fourth Judicial District",
    "clerk": "Chantel T Jones",
    "phone": "434/332-9546",
    "fax": "434/332-9694",
    "email": "CDTJones@vacourts.gov",
    "address": "P. O. Box 97, 732 Village Highway",
    "city": "Rustburg",
    "state": "VA",
    "zip": "24588",
    "hours": "8:00AM - 4:00PM",
    "homepage": "https://www.vacourts.gov/courts/gd/campbell/home",
    "judges": [
      "Stephanie S. Maddox, Presiding Judge",
      "Sam Daniel Eggleston III, Chief Judge",
      "Randy C. Krantz"
    ]
  },
  {
    "name": "Campbell JDR",
    "locality": "Campbell",
    "type": "Juvenile & Domestic Relations",
    "district": "Twenty-fourth Judicial District",
    "clerk": "Lisa M. Knight",
    "phone": "434/332-9555",
    "fax": "434/332-9692",
    "email": null,
    "address": "P. O. Box 220, 732 Village Hwy., Second Floor",
    "city": "Rustburg",
    "state": "VA",
    "zip": "24588",
    "hours": "8:00AM - 4:00PM",
    "homepage": "https://www.vacourts.gov/courts/jdr/campbell/home",
    "judges": [
      "Brooke Taylor Willse Gaddy, Presiding Judge",
      "Jennifer E. Stille, Chief Judge",
      "Eugene N. Butler",
      "Robert Louis Harrison Jr.",
      "Stephanie Mutter-Ayers",
      "H. Cary Payne"
    ]
  },
  {
    "name": "Caroline GD",
    "locality": "Caroline",
    "type": "General District",
    "district": "Fifteenth Judicial District",
    "clerk": "Taylor E. Calhoun",
    "phone": "804/633-5720",
    "fax": "804/633-3033",
    "email": null,
    "address": "P.O. Box 511, 111 Ennis Street",
    "city": "Bowling Green",
    "state": "VA",
    "zip": "22427",
    "hours": "8:00AM - 4:00PM",
    "homepage": "https://www.vacourts.gov/courts/gd/caroline/home",
    "judges": [
      "Hugh S. Campbell, Chief Judge",
      "Vincent S. Donoghue",
      "Richard T. McGrath",
      "Angela M. O'Connor",
      "Jane M. Reynolds",
      "Julia H. Sichol",
      "Mayo J. Wilson"
    ]
  },
  {
    "name": "Caroline JDR",
    "locality": "Caroline",
    "type": "Juvenile & Domestic Relations",
    "district": "Fifteenth Judicial District",
    "clerk": "Kristie Gail Daily",
    "phone": "804/633-9550",
    "phones": {
      "other": "804/633-4061"
    },
    "fax": "804/633-4065",
    "email": "kdaily@vacourts.gov",
    "address": "P. O. Box 462, Courthouse",
    "city": "Bowling Green",
    "state": "VA",
    "zip": "22427",
    "hours": "8:00AM - 4:00PM",
    "homepage": "https://www.vacourts.gov/courts/jdr/caroline/home",
    "judges": [
      "Frank G Uvanni, Presiding Judge",
      "Andrea M. Stewart, Chief Judge",
      "John E. Franklin",
      "Julian W. Johnson",
      "Marcel D. Jones",
      "Lisa A. Seward",
      "Joseph A. Vance IV"
    ]
  },
  {
    "name": "Carroll GD",
    "locality": "Carroll",
    "type": "General District",
    "district": "Twenty-seventh Judicial District",
    "clerk": "Donna Webb Ayers",
    "phone": "276/730-3050",
    "fax": "276/730-3054",
    "email": "dayers@vacourts.gov",
    "address": "P. O. Box 698, 605 Pine Street",
    "city": "Hillsville",
    "state": "VA",
    "zip": "24343",
    "hours": "8:00AM - 4:00PM",
    "homepage": "https://www.vacourts.gov/courts/gd/carroll/home",
    "judges": [
      "Gerald Eugene Mabe II, Chief Judge, Presiding Judge",
      "J. D. Bolt",
      "Erin J. DeHart",
      "Randal J. Duncan",
      "Gino W. Williams"
    ]
  },
  {
    "name": "Carroll JDR",
    "locality": "Carroll",
    "type": "Juvenile & Domestic Relations",
    "district": "Twenty-seventh Judicial District",
    "clerk": "Shayla Arielle Smythers",
    "phone": "276/730-3049",
    "fax": "276/730-3104",
    "email": null,
    "address": "P. O. Box 1808, 605 Pine Street",
    "city": "Hillsville",
    "state": "VA",
    "zip": "24343",
    "hours": "8:00AM - 4:30PM",
    "homepage": "https://www.vacourts.gov/courts/jdr/carroll/home",
    "judges": [
      "Bradley G Dalton, Chief Judge",
      "Howard Lee Chitwood",
      "Monica D. Cox",
      "Ryan D. Hamrick",
      "Stephanie Murray Shortt"
    ]
  },
  {
    "name": "Charles City GD & JDR",
    "locality": "Charles City",
    "type": "Combined District",
    "district": "Ninth Judicial District",
    "clerk": "Barbara Jean Watkins",
    "phone": "804/652-2188",
    "fax": "804/829-6390",
    "email": null,
    "address": "P. O. Box 57, 10780 Courthouse Road",
    "city": "Charles City",
    "state": "VA",
    "zip": "23030",
    "hours": "8:00AM - 4:00PM",
    "homepage": "https://www.vacourts.gov/courts/combined/charles_city/home",
    "judges": [
      "Matthew D. Danielson, Presiding Judge",
      "Wade A. Bowie, Chief Judge",
      "James Anderson Mullins",
      "Stephanie M. Revere",
      "Mara M. Matthews, Presiding Judge",
      "Matthew Rush Kite, Chief Judge",
      "Richard G. Collins",
      "Brian J. Smalls"
    ]
  },
  {
    "name": "Charlotte GD",
    "locality": "Charlotte",
    "type": "General District",
    "district": "Tenth Judicial District",
    "clerk": "Shannon Dawn Martin",
    "phone": "434/542-5600",
    "fax": "434/542-5902",
    "email": null,
    "address": "P. O. Box 127, 115 David Bruce Ave",
    "city": "Charlotte Cthse",
    "state": "VA",
    "zip": "23923",
    "hours": "8:30AM - 4:30PM",
    "homepage": "https://www.vacourts.gov/courts/gd/charlotte/home",
    "judges": [
      "Calvin S. Spencer Jr., Chief Judge, Presiding Judge",
      "Jody H. Fariss",
      "Darrel W. Puckett"
    ]
  },
  {
    "name": "Charlotte JDR",
    "locality": "Charlotte",
    "type": "Juvenile & Domestic Relations",
    "district": "Tenth Judicial District",
    "clerk": "Sherri Thompson Jones",
    "phone": "434/542-5104",
    "fax": "434/542-4339",
    "email": "STJones@vacourts.gov",
    "address": "115 David Bruce Avenue, 3rd Floor, Mailing Address: P.O. Box 8,",
    "city": "Charlotte Court House",
    "state": "VA",
    "zip": "23923",
    "hours": "8:00AM - 4:30PM",
    "homepage": "https://www.vacourts.gov/courts/jdr/charlotte/home",
    "judges": [
      "Nora J. Miller, Presiding Judge",
      "Marvin H. Dunkum Jr., Chief Judge",
      "Brendan U. Dunning"
    ]
  },
  {
    "name": "Charlottesville GD",
    "locality": "Charlottesville",
    "type": "General District",
    "district": "Sixteenth Judicial District",
    "clerk": "Mary Alice Trimble",
    "phone": "434/970-3388",
    "fax": "434/970-3387",
    "email": null,
    "address": "P. O. Box 2677, 606 East Market Street",
    "city": "Charlottesville",
    "state": "VA",
    "zip": "22902",
    "hours": "8:30AM - 4:30PM",
    "homepage": "https://www.vacourts.gov/courts/gd/charlottesville/home",
    "judges": [
      "Kenneth Andrew Sneathern, Presiding Judge",
      "Claiborne H. Stokes Jr., Chief Judge",
      "Theresa W. Carter",
      "Matthew J. Quatrara"
    ]
  },
  {
    "name": "Charlottesville JDR",
    "locality": "Charlottesville",
    "type": "Juvenile & Domestic Relations",
    "district": "Sixteenth Judicial District",
    "clerk": "Stephanie Michelle Bunch",
    "phone": "434/979-7165",
    "fax": "434/293-0211",
    "email": null,
    "address": "411 East High Street",
    "city": "Charlottesville",
    "state": "VA",
    "zip": "22902",
    "hours": "8:00AM - 4:00PM",
    "homepage": "https://www.vacourts.gov/courts/jdr/charlottesville/home",
    "judges": [
      "Deborah S. Tinsley, Chief Judge",
      "Peter K. Griffith",
      "Kara L. Larson",
      "Barbara G. Lowe",
      "Ronald L. Morris",
      "Areshini Pather"
    ]
  },
  {
    "name": "Chesapeake GD",
    "locality": "Chesapeake",
    "type": "General District",
    "district": "First Judicial District",
    "clerk": "Glynis G. Townsend",
    "phone": "757/382-3100",
    "fax": "PreCourt Traffic/Criminal/Financial: 757/382-31",
    "email": null,
    "address": "307 Albemarle Drive, Civic Center",
    "city": "Chesapeake",
    "state": "VA",
    "zip": "23322",
    "hours": "8:00AM - 4:00PM",
    "homepage": "https://www.vacourts.gov/courts/gd/chesapeake/home",
    "judges": [
      "Michael R. Katchmark, Chief Judge",
      "Erin L. Evans-Bedois",
      "Tanya L. Lomax",
      "Derek A Wagner"
    ]
  },
  {
    "name": "Chesapeake JDR",
    "locality": "Chesapeake",
    "type": "Juvenile & Domestic Relations",
    "district": "First Judicial District",
    "clerk": "Toya Chiante Southall",
    "phone": "757/382-8100",
    "fax": "757/382-8152",
    "email": null,
    "address": "301 Albemarle Drive, Second Floor",
    "city": "Chesapeake",
    "state": "VA",
    "zip": "23322",
    "hours": "8:00AM - 4:00PM",
    "homepage": "https://www.vacourts.gov/courts/jdr/chesapeake/home",
    "judges": [
      "David Losia Jones, Chief Judge",
      "Lori Beth Galbraith",
      "Chanel Ann Gray"
    ]
  },
  {
    "name": "Chesterfield GD",
    "locality": "Chesterfield",
    "type": "General District",
    "district": "Twelfth Judicial District",
    "clerk": "Linda Josette McCollum-Moore",
    "phone": "804/748-1231",
    "fax": "804/748-1757",
    "email": null,
    "address": "P. O. Box 144, Chesterfield Courthouse, 9500 Courthouse Road",
    "city": "Chesterfield",
    "state": "VA",
    "zip": "23832",
    "hours": "8:00AM - 4:00PM",
    "homepage": "https://www.vacourts.gov/courts/gd/chesterfield/home",
    "judges": [
      "Matthew Donald Nelson, Chief Judge, Presiding Judge",
      "Curtis M. Hairston Jr., Presiding Judge",
      "Shajuan Mason House, Presiding Judge",
      "Keith Nelson Hurley, Presiding Judge"
    ]
  },
  {
    "name": "Chesterfield JDR",
    "locality": "Chesterfield",
    "type": "Juvenile & Domestic Relations",
    "district": "Twelfth Judicial District",
    "clerk": "Jennifer Goga Nicely",
    "phone": "804/748-1379",
    "fax": "804/717-6043",
    "email": null,
    "address": "7000 Lucy Corr Boulevard",
    "city": "Chesterfield",
    "state": "VA",
    "zip": "23832",
    "hours": "8:00AM - 4:00PM",
    "homepage": "https://www.vacourts.gov/courts/jdr/chesterfield/home",
    "judges": [
      "Duane Gregory Carr, Presiding Judge",
      "Vanessa L Jones, Presiding Judge",
      "Scott David Landry, Presiding Judge",
      "J. David Rigler, Presiding Judge",
      "Travis R. Williams, Presiding Judge",
      "Tara D. Hatcher, Chief Judge"
    ]
  },
  {
    "name": "Clarke GD",
    "locality": "Clarke",
    "type": "General District",
    "district": "Twenty-sixth Judicial District",
    "clerk": "Julie G. Aemmer",
    "phone": "540/955-5128",
    "fax": "540/955-1195",
    "email": null,
    "address": "104 North Church Street",
    "city": "Berryville",
    "state": "VA",
    "zip": "22611",
    "hours": "8:00AM - 4:00PM",
    "homepage": "https://www.vacourts.gov/courts/gd/clarke/home",
    "judges": [
      "Amy B. Tisinger, Chief Judge, Presiding Judge",
      "Kenneth L. Alger II",
      "Mary Louise Costello Daniel",
      "Louis K. Nagy",
      "Anne M. Williams"
    ]
  },
  {
    "name": "Clarke JDR",
    "locality": "Clarke",
    "type": "Juvenile & Domestic Relations",
    "district": "Twenty-sixth Judicial District",
    "clerk": "Sherri Allen",
    "phone": "540/955-5136",
    "fax": "540/955-1154",
    "email": "sallen@vacourts.gov",
    "address": "104 North Church Street, 2nd Floor",
    "city": "Berryville",
    "state": "VA",
    "zip": "22611",
    "hours": "8:00AM - 4:00PM",
    "homepage": "https://www.vacourts.gov/courts/jdr/clarke/home",
    "judges": [
      "Kimberly Marion Athey, Chief Judge",
      "Elizabeth Kellas Burton",
      "Bryan M Cave",
      "James A. Drown",
      "Rachel E. Figura",
      "Chad A. Logan",
      "Nancie Williams"
    ]
  },
  {
    "name": "Colonial Heights GD",
    "locality": "Colonial Heights",
    "type": "General District",
    "district": "Twelfth Judicial District",
    "clerk": "Chelsea Lythgoe Murrell",
    "phone": "804/520-9346",
    "fax": "804/520-9370",
    "email": null,
    "address": "P. O. Box 3401, 550 Boulevard",
    "city": "Colonial Heights",
    "state": "VA",
    "zip": "23834",
    "hours": "8:00AM - 4:00PM",
    "homepage": "https://www.vacourts.gov/courts/gd/colonial_heights/home",
    "judges": [
      "Matthew Donald Nelson, Chief Judge, Presiding Judge",
      "Curtis M. Hairston Jr., Presiding Judge",
      "Keith Nelson Hurley, Presiding Judge",
      "Shajuan Mason House"
    ]
  },
  {
    "name": "Colonial Heights JDR",
    "locality": "Colonial Heights",
    "type": "Juvenile & Domestic Relations",
    "district": "Twelfth Judicial District",
    "clerk": "Evelyn Hall",
    "phone": "804/451-0213",
    "fax": "804/479-3952",
    "email": "eahall@vacourts.gov",
    "address": "P. O. Box 3401, 550 Boulevard",
    "city": "Colonial Heights",
    "state": "VA",
    "zip": "23834",
    "hours": "8:00AM - 4:00PM",
    "homepage": "https://www.vacourts.gov/courts/jdr/colonial_heights/home",
    "judges": [
      "Scott David Landry, Presiding Judge",
      "Tara D. Hatcher, Chief Judge",
      "Duane Gregory Carr",
      "Vanessa L Jones",
      "J. David Rigler",
      "Travis R. Williams"
    ]
  },
  {
    "name": "Craig GD & JDR",
    "locality": "Craig",
    "type": "Combined District",
    "district": "Twenty-fifth Judicial District",
    "clerk": "Patricia H Taylor",
    "phone": "540/864-5989",
    "fax": "540/864-7385",
    "email": "ptaylor@vacourts.gov",
    "address": "P. O. Box 232, 182 Main Street, Suite 5",
    "city": "New Castle",
    "state": "VA",
    "zip": "24127",
    "hours": "8:00AM - 4:00PM",
    "homepage": "https://www.vacourts.gov/courts/combined/craig/home",
    "judges": [
      "Christopher M. Billias, Chief Judge",
      "Robin J. Mayer",
      "Rupen R. Shah",
      "David Browning Spigle",
      "Linda Schorsch Jones, Chief Judge",
      "Robert C. Hagan Jr.",
      "Lethia C. Hammond",
      "Susan B. Read",
      "Correy R. Smith"
    ]
  },
  {
    "name": "Culpeper GD",
    "locality": "Culpeper",
    "type": "General District",
    "district": "Sixteenth Judicial District",
    "clerk": "Cheryl Lee Phillips",
    "phone": "540/727-3417",
    "fax": null,
    "email": null,
    "address": "135 West Cameron Street",
    "city": "Culpeper",
    "state": "VA",
    "zip": "22701",
    "hours": "8:00AM - 4:00PM",
    "homepage": "https://www.vacourts.gov/courts/gd/culpeper/home",
    "judges": [
      "Theresa W. Carter, Presiding Judge",
      "Claiborne H. Stokes Jr., Chief Judge",
      "Matthew J. Quatrara",
      "Kenneth Andrew Sneathern"
    ]
  },
  {
    "name": "Culpeper JDR",
    "locality": "Culpeper",
    "type": "Juvenile & Domestic Relations",
    "district": "Sixteenth Judicial District",
    "clerk": "Bethany Ann McClanahan",
    "phone": "540/727-3418",
    "fax": "540/727-3498",
    "email": null,
    "address": "135 West Cameron Street",
    "city": "Culpeper",
    "state": "VA",
    "zip": "22701",
    "hours": "8:00AM - 4:00PM",
    "homepage": "https://www.vacourts.gov/courts/jdr/culpeper/home",
    "judges": [
      "Peter K. Griffith, Presiding Judge",
      "Kara L. Larson, Presiding Judge",
      "Deborah S. Tinsley, Chief Judge",
      "Barbara G. Lowe",
      "Ronald L. Morris",
      "Areshini Pather"
    ]
  },
  {
    "name": "Cumberland GD & JDR",
    "locality": "Cumberland",
    "type": "Combined District",
    "district": "Tenth Judicial District",
    "clerk": "Kimberly Ann Gilliam",
    "phone": "804/492-4848",
    "fax": "804/492-9455",
    "email": null,
    "address": "1 Courthouse Circle, Courthouse, P. O. Box 24",
    "city": "Cumberland",
    "state": "VA",
    "zip": "23040",
    "hours": "8:30AM - 4:30PM",
    "homepage": "https://www.vacourts.gov/courts/combined/cumberland/home",
    "judges": [
      "Calvin S. Spencer Jr., Chief Judge",
      "Jody H. Fariss",
      "Darrel W. Puckett",
      "Marvin H. Dunkum Jr., Chief Judge, Presiding Judge",
      "Brendan U. Dunning",
      "Nora J. Miller"
    ]
  },
  {
    "name": "Danville GD",
    "locality": "Danville",
    "type": "General District",
    "district": "Twenty-second Judicial District",
    "clerk": "Linda Shively Hawker",
    "phone": "434/799-5179",
    "fax": "434/797-8814",
    "email": null,
    "address": "P. O. Box 3300, 401 Patton Street",
    "city": "Danville",
    "state": "VA",
    "zip": "24543",
    "hours": "8:30AM - 4:30PM",
    "homepage": "https://www.vacourts.gov/courts/gd/danville/home",
    "judges": [
      "Allen W. (A.J.) Dudley Jr., Chief Judge",
      "Leslie R. (Les) Adams",
      "Greg T. Haymore"
    ]
  },
  {
    "name": "Danville JDR",
    "locality": "Danville",
    "type": "Juvenile & Domestic Relations",
    "district": "Twenty-second Judicial District",
    "clerk": "Tammy Calloway White",
    "phone": "434/799-5173",
    "phones": {
      "other": "434/799-5174"
    },
    "fax": "434/799-5025",
    "email": "TCWhite@vacourts.gov",
    "address": "P. O. Box 3300, 401 Patton Street",
    "city": "Danville",
    "state": "VA",
    "zip": "24543",
    "hours": "8:30AM - 4:30PM",
    "homepage": "https://www.vacourts.gov/courts/jdr/danville/home",
    "judges": [
      "Claudette S Robertson, Presiding Judge",
      "Deanna Perdue Stone, Chief Judge",
      "Pamela Melissa P. Keen"
    ]
  },
  {
    "name": "Dickenson GD & JDR",
    "locality": "Dickenson",
    "type": "Combined District",
    "district": "Twenty-ninth Judicial District",
    "clerk": "Ashley Nicole Turner",
    "phone": "276/926-1630",
    "fax": "276/926-4815",
    "email": null,
    "address": "119 Courthouse Lane, Dickenson County Judicial Center, P. O. Box 128",
    "city": "Clintwood",
    "state": "VA",
    "zip": "24228",
    "hours": "8:30AM - 4:30PM",
    "homepage": "https://www.vacourts.gov/courts/combined/dickenson/home",
    "judges": [
      "George Robert Brittain, Chief Judge",
      "Martha P. Ketron, Chief Judge",
      "Michael J. Bush",
      "Laura F. O'Quinn"
    ]
  },
  {
    "name": "Dinwiddie GD & JDR",
    "locality": "Dinwiddie",
    "type": "Combined District",
    "district": "Eleventh Judicial District",
    "clerk": "Lisa G. Coleman",
    "phone": "804/469-4533",
    "fax": "804/469-5383",
    "email": null,
    "address": "P. O. Box 280, Dinwiddie Courthouse",
    "city": "Dinwiddie",
    "state": "VA",
    "zip": "23841",
    "hours": "8:30AM - 4:30PM",
    "homepage": "https://www.vacourts.gov/courts/combined/dinwiddie/home",
    "judges": [
      "Thomas Stark IV, Chief Judge",
      "Kenneth A. Blalock",
      "Brian H. Jones",
      "Cheryl J. Wilson, Chief Judge, Presiding Judge",
      "Phillip T. DiStanislao",
      "Theresa J. Royall"
    ]
  },
  {
    "name": "Emporia GD & JDR",
    "locality": "Emporia",
    "type": "Combined District",
    "district": "Sixth Judicial District",
    "clerk": "Janell Monique Wilson",
    "phone": "434/634-5400",
    "fax": "434/634-0049",
    "email": null,
    "address": "315 South Main Street",
    "city": "Emporia",
    "state": "VA",
    "zip": "23847",
    "hours": "8:00AM - 4:00PM",
    "homepage": "https://www.vacourts.gov/courts/combined/emporia/home",
    "judges": [
      "Lyndia P. Ramsey, Chief Judge",
      "Peter D. Eliades",
      "Elbert D. Mumphery",
      "William S Newsome",
      "Patricia T Watson",
      "Jacqueline R. Waymack, Chief Judge",
      "Christopher B. Ackerman",
      "Robert John Fierro Jr."
    ]
  },
  {
    "name": "Essex GD & JDR",
    "locality": "Essex",
    "type": "Combined District",
    "district": "Fifteenth Judicial District",
    "clerk": "Dee Balderson Davis",
    "phone": "804/443-3744",
    "fax": "804/443-4122",
    "email": null,
    "address": "P. O. Box 66, 300 Prince Street",
    "city": "Tappahannock",
    "state": "VA",
    "zip": "22560",
    "hours": "8:00AM - 4:00PM",
    "homepage": "https://www.vacourts.gov/courts/combined/essex/home",
    "judges": [
      "Hugh S. Campbell, Chief Judge",
      "Vincent S. Donoghue",
      "Richard T. McGrath",
      "Angela M. O'Connor",
      "Jane M. Reynolds",
      "Julia H. Sichol",
      "Mayo J. Wilson",
      "Andrea M. Stewart, Chief Judge",
      "John E. Franklin",
      "Julian W. Johnson",
      "Marcel D. Jones",
      "Lisa A. Seward",
      "Frank G Uvanni",
      "Joseph A. Vance IV"
    ]
  },
  {
    "name": "Fairfax City GD",
    "locality": "Fairfax City",
    "type": "General District",
    "district": "Nineteenth Judicial District",
    "clerk": "Jessica Page Beach",
    "phone": "703/385-7866",
    "fax": "703/352-3195",
    "email": "FXCityGD@vacourts.gov",
    "address": "10455 Armstrong Street",
    "city": "Fairfax",
    "state": "VA",
    "zip": "22030",
    "hours": "8:30AM - 4:30PM",
    "homepage": "https://www.vacourts.gov/courts/gd/fairfax_city/home",
    "judges": [
      "Susan Friedlander Earman, Presiding Judge",
      "Gary H. Moliken, Presiding Judge",
      "Tina L. Snee, Presiding Judge",
      "Michael Joseph Holleran, Chief Judge",
      "Robert V. Bryan Jr.",
      "Andrew Todd Elders",
      "Tamika D. Jones",
      "Vanessa R. Jordan",
      "John A. Kassabian",
      "Anthony H. Nourse",
      "Raymond Joseph Obregon",
      "Todd M. Zinicola"
    ]
  },
  {
    "name": "Fairfax County GD",
    "locality": "Fairfax County",
    "type": "General District",
    "district": "Nineteenth Judicial District",
    "clerk": "Susan D. Madsen",
    "phone": null,
    "fax": null,
    "email": null,
    "address": "4110 Chain Bridge Road, Suite 210, Road, Room 106, Fairfax, VA",
    "city": "Street, Herndon",
    "state": "VA",
    "zip": "22070",
    "hours": "8:00AM - 4:00PM",
    "homepage": "https://www.vacourts.gov/courts/gd/fairfax_county/home",
    "judges": [
      "Michael Joseph Holleran, Chief Judge, Presiding Judge",
      "Robert V. Bryan Jr., Presiding Judge",
      "Susan Friedlander Earman, Presiding Judge",
      "Andrew Todd Elders, Presiding Judge",
      "Tamika D. Jones, Presiding Judge",
      "Vanessa R. Jordan, Presiding Judge",
      "John A. Kassabian, Presiding Judge",
      "Gary H. Moliken, Presiding Judge",
      "Anthony H. Nourse, Presiding Judge",
      "Raymond Joseph Obregon, Presiding Judge",
      "Tina L. Snee, Presiding Judge",
      "Todd M. Zinicola, Presiding Judge"
    ]
  },
  {
    "name": "Fairfax County JDR",
    "locality": "Fairfax County",
    "type": "Juvenile & Domestic Relations",
    "district": "Nineteenth Judicial District",
    "clerk": "Kristi Alisia Smith",
    "phone": "703/246-3367",
    "fax": "703/352-8934",
    "email": null,
    "address": "4110 Chain Bridge Road",
    "city": "Fairfax",
    "state": "VA",
    "zip": "22030",
    "hours": "8:00AM - 4:00PM",
    "homepage": "https://www.vacourts.gov/courts/jdr/fairfax_county/home",
    "judges": [
      "Thomas P. Sotelo, Chief Judge, Presiding Judge",
      "Maha-Rebekah Ramos Abejuela, Presiding Judge",
      "Todd G. Petit, Presiding Judge",
      "Melissa S. Cardoce",
      "Razan Fayez",
      "Divani R. Nadaraja",
      "Michael C. Sprano",
      "Melinda L. VanLowe"
    ]
  },
  {
    "name": "Falls Church GD & JDR",
    "locality": "Falls Church",
    "type": "Combined District",
    "district": "Seventeenth Judicial District",
    "clerk": "Shana Lawan Gooden",
    "phone": "703/248-5098",
    "phones": {
      "Civil": "703/248-5098",
      "JDR": "703/248-5099"
    },
    "fax": "703/248-5115",
    "email": null,
    "address": "300 Park Avenue, Suite 151W",
    "city": "Falls Church",
    "state": "VA",
    "zip": "22046",
    "hours": "8:00AM - 4:00PM",
    "homepage": "https://www.vacourts.gov/courts/combined/falls_church/home",
    "judges": [
      "Jason S. Rucker, Chief Judge",
      "Adam M. Krischer",
      "Cari Michele Steele",
      "Robin L. Robb Kendrick, Chief Judge",
      "W. Michael Chick Jr."
    ]
  },
  {
    "name": "Fauquier GD",
    "locality": "Fauquier",
    "type": "General District",
    "district": "Twentieth Judicial District",
    "clerk": "Whitney Danielle Thornton",
    "phone": "540/422-8035",
    "fax": "540/422-8033",
    "email": null,
    "address": "6 Court Street",
    "city": "Warrenton",
    "state": "VA",
    "zip": "20186",
    "hours": "8:00AM - 4:00PM",
    "homepage": "https://www.vacourts.gov/courts/gd/fauquier/home",
    "judges": [
      "Lorrie Ann Sinclair Taylor, Chief Judge",
      "William R. Fitzpatrick",
      "Jessica H. Foster",
      "Eric M. Shamis"
    ]
  },
  {
    "name": "Fauquier JDR",
    "locality": "Fauquier",
    "type": "Juvenile & Domestic Relations",
    "district": "Twentieth Judicial District",
    "clerk": "Ashley Brooks Settle",
    "phone": "540/422-8040",
    "fax": "540/422-8041",
    "email": null,
    "address": "14 Main Street",
    "city": "Warrenton",
    "state": "VA",
    "zip": "20186",
    "hours": "8:00AM - 4:00PM",
    "homepage": "https://www.vacourts.gov/courts/jdr/fauquier/home",
    "judges": [
      "Melissa N. Cupp, Presiding Judge",
      "Pamela L. Brooks, Chief Judge",
      "Charles Francis Koehler Jr.",
      "Rachel D Robinson"
    ]
  },
  {
    "name": "Floyd GD & JDR",
    "locality": "Floyd",
    "type": "Combined District",
    "district": "Twenty-seventh Judicial District",
    "clerk": "Nikki Douthat King",
    "phone": "540/745-9327",
    "fax": "540/745-9329",
    "email": "NDKing@vacourts.gov",
    "address": "Courthouse, 100 E. Main Street",
    "city": "Floyd",
    "state": "VA",
    "zip": "24091",
    "hours": "8:00AM - 4:30PM",
    "homepage": "https://www.vacourts.gov/courts/combined/floyd/home",
    "judges": [
      "Randal J. Duncan, Presiding Judge",
      "Gerald Eugene Mabe II, Chief Judge",
      "J. D. Bolt",
      "Erin J. DeHart",
      "Gino W. Williams",
      "Bradley G Dalton, Chief Judge, Presiding Judge",
      "Howard Lee Chitwood",
      "Monica D. Cox",
      "Ryan D. Hamrick",
      "Stephanie Murray Shortt"
    ]
  },
  {
    "name": "Fluvanna GD & JDR",
    "locality": "Fluvanna",
    "type": "Combined District",
    "district": "Sixteenth Judicial District",
    "clerk": "Kimberly Ann Warner",
    "phone": "434/591-1980",
    "fax": "434/591-1981",
    "email": null,
    "address": "P. O. Box 417, 72 Main Street, Suite B",
    "city": "Palmyra",
    "state": "VA",
    "zip": "22963",
    "hours": "8:30AM - 4:30PM",
    "homepage": "https://www.vacourts.gov/courts/combined/fluvanna/home",
    "judges": [
      "Claiborne H. Stokes Jr., Chief Judge",
      "Theresa W. Carter",
      "Matthew J. Quatrara",
      "Kenneth Andrew Sneathern",
      "Deborah S. Tinsley, Chief Judge",
      "Peter K. Griffith",
      "Kara L. Larson",
      "Barbara G. Lowe",
      "Ronald L. Morris",
      "Areshini Pather"
    ]
  },
  {
    "name": "Franklin City GD & JDR",
    "locality": "Franklin City",
    "type": "Combined District",
    "district": "Fifth Judicial District",
    "clerk": "Tameka Annetionette Easterday",
    "phone": "757/562-8550",
    "fax": "757/562-1156",
    "email": null,
    "address": "1020 Pretlow Street",
    "city": "Franklin",
    "state": "VA",
    "zip": "23851",
    "hours": "8:00AM - 4:00PM",
    "homepage": "https://www.vacourts.gov/courts/combined/franklin_city/home",
    "judges": [
      "Robert C. Barclay IV, Chief Judge",
      "Nicole A. Belote",
      "Vaughn T. Breedlove",
      "James E. Wiser, Chief Judge",
      "Stan D. Clark"
    ]
  },
  {
    "name": "Franklin County GD",
    "locality": "Franklin County",
    "type": "General District",
    "district": "Twenty-second Judicial District",
    "clerk": "Jacqueline Preston Brubaker",
    "phone": "540/483-3060",
    "fax": "540/483-3036",
    "email": null,
    "address": "P. O. Box 569, 275 South Main Street, Suite 111",
    "city": "Rocky Mount",
    "state": "VA",
    "zip": "24151",
    "hours": "8:30AM - 4:30PM",
    "homepage": "https://www.vacourts.gov/courts/gd/franklin_county/home",
    "judges": [
      "Allen W. (A.J.) Dudley Jr., Chief Judge",
      "Leslie R. (Les) Adams",
      "Greg T. Haymore"
    ]
  },
  {
    "name": "Franklin County JDR",
    "locality": "Franklin County",
    "type": "Juvenile & Domestic Relations",
    "district": "Twenty-second Judicial District",
    "clerk": "Billie Jo Wagner",
    "phone": "540/483-3055",
    "fax": "540/483-6603",
    "email": null,
    "address": "275 South Main Street, Courthouse, Suite 3",
    "city": "Rocky Mount",
    "state": "VA",
    "zip": "24151",
    "hours": "8:00AM - 4:00PM",
    "homepage": "https://www.vacourts.gov/courts/jdr/franklin_county/home",
    "judges": [
      "Deanna Perdue Stone, Chief Judge",
      "Pamela Melissa P. Keen",
      "Claudette S Robertson"
    ]
  },
  {
    "name": "Frederick/Winchester GD",
    "locality": "Frederick/Winchester",
    "type": "General District",
    "district": "Twenty-sixth Judicial District",
    "clerk": "Tamara L. Heishman",
    "phone": "540/722-7208",
    "fax": "540/722-1063",
    "email": null,
    "address": "Judicial Center, 5 North Kent Street",
    "city": "Winchester",
    "state": "VA",
    "zip": "22601",
    "hours": "8:00AM - 4:00PM",
    "homepage": "https://www.vacourts.gov/courts/gd/Frederick~Winchester/home",
    "judges": [
      "Amy B. Tisinger, Chief Judge",
      "Kenneth L. Alger II",
      "Mary Louise Costello Daniel",
      "Louis K. Nagy",
      "Anne M. Williams"
    ]
  },
  {
    "name": "Frederick/Winchester JDR",
    "locality": "Frederick/Winchester",
    "type": "Juvenile & Domestic Relations",
    "district": "Twenty-sixth Judicial District",
    "clerk": "Lisa M. Eaton",
    "phone": "540/667-5770",
    "fax": "540/723-8886",
    "email": null,
    "address": "Judicial Center, 5 North Kent Street",
    "city": "Winchester",
    "state": "VA",
    "zip": "22601",
    "hours": "8:00AM - 4:00PM",
    "homepage": "https://www.vacourts.gov/courts/jdr/Frederick~Winchester/homehttps://www.vacourts.gov/courts/jdr/Frederick~Winchester/home",
    "judges": [
      "Kimberly Marion Athey, Chief Judge, Presiding Judge",
      "Elizabeth Kellas Burton, Presiding Judge",
      "Bryan M Cave",
      "James A. Drown",
      "Rachel E. Figura",
      "Chad A. Logan",
      "Nancie Williams"
    ]
  },
  {
    "name": "Fredericksburg GD",
    "locality": "Fredericksburg",
    "type": "General District",
    "district": "Fifteenth Judicial District",
    "clerk": "Laura Leanne Hatch",
    "phone": "540/372-1044",
    "phones": {
      "Civil": "540/372-1044"
    },
    "fax": "Civil: 540/370-1729",
    "email": "LHatch@vacourts.gov",
    "address": "701 Princess Anne Street Suite 200",
    "city": "Fredericksburg",
    "state": "VA",
    "zip": "22401",
    "hours": "8:00AM - 4:00PM",
    "homepage": "https://www.vacourts.gov/courts/gd/fredericksburg/home",
    "judges": [
      "Hugh S. Campbell, Chief Judge",
      "Vincent S. Donoghue",
      "Richard T. McGrath",
      "Angela M. O'Connor",
      "Jane M. Reynolds",
      "Julia H. Sichol",
      "Mayo J. Wilson"
    ]
  },
  {
    "name": "Fredericksburg JDR",
    "locality": "Fredericksburg",
    "type": "Juvenile & Domestic Relations",
    "district": "Fifteenth Judicial District",
    "clerk": "Julie A. Dobson",
    "phone": "540/372-1072",
    "fax": "540/372-1164",
    "email": "FredericksburgJDR@vacourts.gov",
    "address": "615 Princess Anne Street",
    "city": "Fredericksburg",
    "state": "VA",
    "zip": "22401",
    "hours": "8:00AM - 4:00PM",
    "homepage": "https://www.vacourts.gov/courts/jdr/fredericksburg/home",
    "judges": [
      "Joseph A. Vance IV, Presiding Judge",
      "Andrea M. Stewart, Chief Judge",
      "John E. Franklin",
      "Julian W. Johnson",
      "Marcel D. Jones",
      "Lisa A. Seward",
      "Frank G Uvanni"
    ]
  },
  {
    "name": "Galax GD & JDR",
    "locality": "Galax",
    "type": "Combined District",
    "district": "Twenty-seventh Judicial District",
    "clerk": "Carrie Peake Hawks",
    "phone": "276/236-8731",
    "fax": "276/236-2754",
    "email": null,
    "address": "353 North Main Street, Suite 204",
    "city": "Galax",
    "state": "VA",
    "zip": "24333",
    "hours": "8:00AM - 4:00PM",
    "homepage": "https://www.vacourts.gov/courts/combined/galax/home",
    "judges": [
      "Gerald Eugene Mabe II, Chief Judge, Presiding Judge",
      "J. D. Bolt",
      "Erin J. DeHart",
      "Randal J. Duncan",
      "Gino W. Williams",
      "Bradley G Dalton, Chief Judge",
      "Howard Lee Chitwood",
      "Monica D. Cox",
      "Ryan D. Hamrick",
      "Stephanie Murray Shortt"
    ]
  },
  {
    "name": "Giles GD",
    "locality": "Giles",
    "type": "General District",
    "district": "Twenty-seventh Judicial District",
    "clerk": "Yvette M. Pennington",
    "phone": "540/921-3533",
    "fax": "540/921-3752",
    "email": null,
    "address": "120 North Main Street, Suite 1",
    "city": "Pearisburg",
    "state": "VA",
    "zip": "24134",
    "hours": "8:00AM - 4:00PM",
    "homepage": "https://www.vacourts.gov/courts/gd/giles/home",
    "judges": [
      "Gino W. Williams, Presiding Judge",
      "Gerald Eugene Mabe II, Chief Judge",
      "J. D. Bolt",
      "Erin J. DeHart",
      "Randal J. Duncan"
    ]
  },
  {
    "name": "Giles JDR",
    "locality": "Giles",
    "type": "Juvenile & Domestic Relations",
    "district": "Twenty-seventh Judicial District",
    "clerk": "Lisa J. Ray",
    "phone": "540/921-3420",
    "fax": "540/921-2730",
    "email": null,
    "address": "120 N Main Street, Suite 2",
    "city": "Pearisburg",
    "state": "VA",
    "zip": "24134",
    "hours": "8:30AM - 4:30PM",
    "homepage": "https://www.vacourts.gov/courts/jdr/giles/home",
    "judges": [
      "Ryan D. Hamrick, Presiding Judge",
      "Bradley G Dalton, Chief Judge",
      "Howard Lee Chitwood",
      "Monica D. Cox",
      "Stephanie Murray Shortt"
    ]
  },
  {
    "name": "Gloucester GD",
    "locality": "Gloucester",
    "type": "General District",
    "district": "Ninth Judicial District",
    "clerk": "Hannah Ruth Smith",
    "phone": "804/693-4860",
    "fax": "804/693-6669",
    "email": null,
    "address": "P. O. Box 873, 7400 Justice Drive, Room 102",
    "city": "Gloucester",
    "state": "VA",
    "zip": "23061",
    "hours": "8:00AM - 4:00PM",
    "homepage": "https://www.vacourts.gov/courts/gd/gloucester/home",
    "judges": [
      "Stephanie M. Revere, Presiding Judge",
      "Wade A. Bowie, Chief Judge",
      "Matthew D. Danielson",
      "James Anderson Mullins"
    ]
  },
  {
    "name": "Gloucester JDR",
    "locality": "Gloucester",
    "type": "Juvenile & Domestic Relations",
    "district": "Ninth Judicial District",
    "clerk": "Deanna L McKinnon",
    "phone": "804/693-4850",
    "fax": "804/693-7904",
    "email": null,
    "address": "7400 Justice Drive",
    "city": "Gloucester",
    "state": "VA",
    "zip": "23061",
    "hours": "8:00AM - 4:00PM",
    "homepage": "https://www.vacourts.gov/courts/jdr/gloucester/home",
    "judges": [
      "Matthew Rush Kite, Chief Judge, Presiding Judge",
      "Richard G. Collins",
      "Mara M. Matthews",
      "Brian J. Smalls"
    ]
  },
  {
    "name": "Goochland GD & JDR",
    "locality": "Goochland",
    "type": "Combined District",
    "district": "Sixteenth Judicial District",
    "clerk": "Jennifer Lyn Liptak",
    "phone": "804/556-5309",
    "fax": "804/556-4494",
    "email": null,
    "address": "2938 River Road West, Building G, Mailing Address: P.O. Box 47,",
    "city": "Goochland",
    "state": "VA",
    "zip": "23063-0047",
    "hours": "8:00AM - 4:00PM",
    "homepage": "https://www.vacourts.gov/courts/combined/goochland/home",
    "judges": [
      "Claiborne H. Stokes Jr., Chief Judge, Presiding Judge",
      "Theresa W. Carter",
      "Matthew J. Quatrara",
      "Kenneth Andrew Sneathern",
      "Deborah S. Tinsley, Chief Judge, Presiding Judge",
      "Peter K. Griffith",
      "Kara L. Larson",
      "Barbara G. Lowe",
      "Ronald L. Morris",
      "Areshini Pather"
    ]
  },
  {
    "name": "Grayson GD & JDR",
    "locality": "Grayson",
    "type": "Combined District",
    "district": "Twenty-seventh Judicial District",
    "clerk": "Cody Greer Moss",
    "phone": "276/773-2011",
    "fax": "276/773-3174",
    "email": null,
    "address": "P. O. Box 280, New Grayson Courthouse, 129 Davis St.",
    "city": "Independence",
    "state": "VA",
    "zip": "24348",
    "hours": "8:00AM - 4:00PM",
    "homepage": "https://www.vacourts.gov/courts/combined/grayson/home",
    "judges": [
      "J. D. Bolt, Presiding Judge",
      "Gerald Eugene Mabe II, Chief Judge",
      "Erin J. DeHart",
      "Randal J. Duncan",
      "Gino W. Williams",
      "Monica D. Cox, Presiding Judge",
      "Bradley G Dalton, Chief Judge",
      "Howard Lee Chitwood",
      "Ryan D. Hamrick",
      "Stephanie Murray Shortt"
    ]
  },
  {
    "name": "Greene GD & JDR",
    "locality": "Greene",
    "type": "Combined District",
    "district": "Sixteenth Judicial District",
    "clerk": "Jennifer Rae Currier",
    "phone": "434/985-5224",
    "fax": "434/985-1448",
    "email": null,
    "address": "85 Stanard Street, P. O. Box 245, Ave.",
    "city": "Stanardsville",
    "state": "VA",
    "zip": "22973",
    "hours": "8:00AM - 4:00PM",
    "homepage": "https://www.vacourts.gov/courts/combined/greene/home",
    "judges": [
      "Kenneth Andrew Sneathern, Presiding Judge",
      "Claiborne H. Stokes Jr., Chief Judge",
      "Theresa W. Carter",
      "Matthew J. Quatrara",
      "Peter K. Griffith, Presiding Judge",
      "Deborah S. Tinsley, Chief Judge",
      "Kara L. Larson",
      "Barbara G. Lowe",
      "Ronald L. Morris",
      "Areshini Pather"
    ]
  },
  {
    "name": "Greensville GD & JDR",
    "locality": "Greensville",
    "type": "Combined District",
    "district": "Sixth Judicial District",
    "clerk": "Janell Monique Wilson",
    "phone": "434/634-5400",
    "fax": "434/634-0049",
    "email": null,
    "address": "315 South Main Street",
    "city": "Emporia",
    "state": "VA",
    "zip": "23847",
    "hours": "8:00AM - 4:00PM",
    "homepage": "https://www.vacourts.gov/courts/combined/greensville/home",
    "judges": [
      "Lyndia P. Ramsey, Chief Judge",
      "Peter D. Eliades",
      "Elbert D. Mumphery",
      "William S Newsome",
      "Patricia T Watson",
      "Jacqueline R. Waymack, Chief Judge",
      "Christopher B. Ackerman",
      "Robert John Fierro Jr."
    ]
  },
  {
    "name": "Halifax GD",
    "locality": "Halifax",
    "type": "General District",
    "district": "Tenth Judicial District",
    "clerk": "Veresia R. Wood",
    "phone": "434/476-3385",
    "fax": "434/476-3387",
    "email": null,
    "address": "8 South Main Street Suite 200, Mailing Address: P.O. Box",
    "city": "458, Halifax",
    "state": "VA",
    "zip": "24558",
    "hours": "8:30AM - 4:30PM",
    "homepage": "https://www.vacourts.gov/courts/gd/halifax/home",
    "judges": [
      "Darrel W. Puckett, Presiding Judge",
      "Calvin S. Spencer Jr., Chief Judge",
      "Jody H. Fariss"
    ]
  },
  {
    "name": "Halifax JDR",
    "locality": "Halifax",
    "type": "Juvenile & Domestic Relations",
    "district": "Tenth Judicial District",
    "clerk": "Brandy Strohm Conner",
    "phone": "434/476-3388",
    "phones": {
      "other": "434/476-3389"
    },
    "fax": "434/476-4067",
    "email": null,
    "address": "8 S. Main Street, Courthouse Square, 1st Floor",
    "city": "Halifax",
    "state": "VA",
    "zip": "24558",
    "hours": "8:30AM - 4:30PM",
    "homepage": "https://www.vacourts.gov/courts/jdr/halifax/home",
    "judges": [
      "Brendan U. Dunning, Presiding Judge",
      "Marvin H. Dunkum Jr., Chief Judge",
      "Nora J. Miller"
    ]
  },
  {
    "name": "Hampton GD",
    "locality": "Hampton",
    "type": "General District",
    "district": "Eighth Judicial District",
    "clerk": "James Michael Smith",
    "phone": null,
    "fax": "Civil Division ONLY: 757/282-2482",
    "email": null,
    "address": "236 North King Street, 2nd Floor",
    "city": "Hampton",
    "state": "VA",
    "zip": "23669",
    "hours": "8:00AM - 4:00PM",
    "homepage": "https://www.vacourts.gov/courts/gd/hampton/home",
    "judges": [
      "Selena Stellute Glenn, Chief Judge, Presiding Judge",
      "Steven D. Bond",
      "Shukita L. Massey"
    ]
  },
  {
    "name": "Hampton JDR",
    "locality": "Hampton",
    "type": "Juvenile & Domestic Relations",
    "district": "Eighth Judicial District",
    "clerk": "Jennifer Elizabeth Wren",
    "phone": "757/727-6147",
    "fax": "757/727-6082",
    "email": null,
    "address": "220 North King Street, P. O. Box 69104",
    "city": "Hampton",
    "state": "VA",
    "zip": "23669",
    "hours": "8:00AM - 4:00PM",
    "homepage": "https://www.vacourts.gov/courts/jdr/hampton/home",
    "judges": [
      "Jay Edward Dugger, Chief Judge, Presiding Judge",
      "Gregory C. Bane, Presiding Judge",
      "Robert B. Wilson V, Presiding Judge"
    ]
  },
  {
    "name": "Hanover GD",
    "locality": "Hanover",
    "type": "General District",
    "district": "Fifteenth Judicial District",
    "clerk": "Cheryl Lynn DeVaughn",
    "phone": "804/365-6457",
    "phones": {
      "Civil": "804/365-6457"
    },
    "fax": "Civil: 804/365-6436",
    "email": null,
    "address": "P. O. Box 176, District Courts Building, 7530 County Complex Rd 1st Floor",
    "city": "Hanover",
    "state": "VA",
    "zip": "23069",
    "hours": "8:00AM - 4:00PM",
    "homepage": "https://www.vacourts.gov/courts/gd/hanover/home",
    "judges": [
      "Hugh S. Campbell, Chief Judge, Presiding Judge",
      "Vincent S. Donoghue",
      "Richard T. McGrath",
      "Angela M. O'Connor",
      "Jane M. Reynolds",
      "Julia H. Sichol",
      "Mayo J. Wilson"
    ]
  },
  {
    "name": "Hanover JDR",
    "locality": "Hanover",
    "type": "Juvenile & Domestic Relations",
    "district": "Fifteenth Judicial District",
    "clerk": "Susan S. Wood",
    "phone": "804/365-6200",
    "fax": "804/365-6246",
    "email": null,
    "address": "P. O. Box 86, 7530 County Complex Road",
    "city": "Hanover",
    "state": "VA",
    "zip": "23069",
    "hours": "8:00AM - 4:00PM",
    "homepage": "https://www.vacourts.gov/courts/jdr/hanover/home",
    "judges": [
      "Lisa A. Seward, Presiding Judge",
      "Andrea M. Stewart, Chief Judge",
      "John E. Franklin",
      "Julian W. Johnson",
      "Marcel D. Jones",
      "Frank G Uvanni",
      "Joseph A. Vance IV"
    ]
  },
  {
    "name": "Harrisonburg/Rockingham GD",
    "locality": "Harrisonburg/Rockingham",
    "type": "General District",
    "district": "Twenty-sixth Judicial District",
    "clerk": "Teresa Lynn Brown",
    "phone": "540/564-3130",
    "fax": "540/564-3096",
    "email": null,
    "address": "53 Court Square",
    "city": "Harrisonburg",
    "state": "VA",
    "zip": "22801",
    "hours": "8:00AM - 4:00PM",
    "homepage": "https://www.vacourts.gov/courts/gd/Harrisonburg~Rockingham/home",
    "judges": [
      "Amy B. Tisinger, Chief Judge",
      "Kenneth L. Alger II",
      "Mary Louise Costello Daniel",
      "Louis K. Nagy",
      "Anne M. Williams"
    ]
  },
  {
    "name": "Harrisonburg/Rockingham JDR",
    "locality": "Harrisonburg/Rockingham",
    "type": "Juvenile & Domestic Relations",
    "district": "Twenty-sixth Judicial District",
    "clerk": "Dana L Velasquez",
    "phone": "540/564-3370",
    "fax": "540/564-3378",
    "email": "dvelasquez@vacourts.gov",
    "address": "53 Court Square, Suite 214",
    "city": "Harrisonburg",
    "state": "VA",
    "zip": "22801",
    "hours": "8:00AM - 4:00PM",
    "homepage": "https://www.vacourts.gov/courts/jdr/Harrisonburg~Rockingham/home",
    "judges": [
      "Kimberly Marion Athey, Chief Judge",
      "Elizabeth Kellas Burton",
      "Bryan M Cave",
      "James A. Drown",
      "Rachel E. Figura",
      "Chad A. Logan",
      "Nancie Williams"
    ]
  },
  {
    "name": "Henrico GD",
    "locality": "Henrico",
    "type": "General District",
    "district": "Fourteenth Judicial District",
    "clerk": "Carol Bowman Kennedy",
    "phone": "804/501-4727",
    "phones": {
      "Civil": "804/501-4727"
    },
    "fax": "Civil 804/501-4141",
    "email": null,
    "address": "P. O. Box 90775, 4309 East Parham Road",
    "city": "Henrico",
    "state": "VA",
    "zip": "23273",
    "hours": "8:00AM - 4:00PM",
    "homepage": "https://www.vacourts.gov/courts/gd/henrico/home",
    "judges": [
      "Bryan Craig Dunkum, Chief Judge, Presiding Judge",
      "Lauren Ann Caudill, Presiding Judge",
      "George Barton Chucker, Presiding Judge",
      "Nicole L. Fox, Presiding Judge",
      "John K. Honey Jr., Presiding Judge"
    ]
  },
  {
    "name": "Henrico JDR",
    "locality": "Henrico",
    "type": "Juvenile & Domestic Relations",
    "district": "Fourteenth Judicial District",
    "clerk": "Erin Cowardin Jacoby",
    "phone": "804/501-4688",
    "fax": "804/501-4756",
    "email": null,
    "address": "4201 E. Parham Road, P.O. Box 90775 Henrico, VA",
    "city": "Henrico",
    "state": "VA",
    "zip": "23228",
    "hours": "8:00AM - 4:00PM",
    "homepage": "https://www.vacourts.gov/courts/jdr/henrico/home",
    "judges": [
      "Stacy E. Lee, Chief Judge, Presiding Judge",
      "Nael A Abouzaki, Presiding Judge",
      "Margaret W. Deglau, Presiding Judge",
      "Marissa D. Mitchell, Presiding Judge",
      "Stephen A. Mutnick, Presiding Judge"
    ]
  },
  {
    "name": "Henry GD",
    "locality": "Henry",
    "type": "General District",
    "district": "Twenty-first Judicial District",
    "clerk": "Donna R. Doss",
    "phone": "276/634-4815",
    "fax": "276/634-4825",
    "email": null,
    "address": "3160 Kings Mountain Road, Suite A",
    "city": "Martinsville",
    "state": "VA",
    "zip": "24112",
    "hours": "8:30AM - 4:30PM",
    "homepage": "https://www.vacourts.gov/courts/gd/henry/home",
    "judges": ["Joan Ziglar, Chief Judge", "Stephanie B. Vipperman"]
  },
  {
    "name": "Henry JDR",
    "locality": "Henry",
    "type": "Juvenile & Domestic Relations",
    "district": "Twenty-first Judicial District",
    "clerk": "Sherri Lynn Stout",
    "phone": "276/634-4830",
    "fax": "276/634-4836",
    "email": null,
    "address": "3160 Kings Mountain Road, Suite C, 2nd Floor",
    "city": "Martinsville",
    "state": "VA",
    "zip": "24112",
    "hours": "8:30AM - 4:30PM",
    "homepage": "https://www.vacourts.gov/courts/jdr/henry/home",
    "judges": ["Kimberly R. Belongia, Chief Judge", "Christina L Slate"]
  },
  {
    "name": "Highland GD & JDR",
    "locality": "Highland",
    "type": "Combined District",
    "district": "Twenty-fifth Judicial District",
    "clerk": "Victoria L King",
    "phone": "540/468-2445",
    "fax": "540/468-3449",
    "email": "vking@vacourts.gov",
    "address": "165 West Main Street, P. O. Box 88",
    "city": "Monterey",
    "state": "VA",
    "zip": "24465",
    "hours": "8:30AM - 4:30PM",
    "homepage": "https://www.vacourts.gov/courts/combined/highland/home",
    "judges": [
      "Christopher M. Billias, Chief Judge",
      "Robin J. Mayer",
      "Rupen R. Shah",
      "David Browning Spigle",
      "Linda Schorsch Jones, Chief Judge",
      "Robert C. Hagan Jr.",
      "Lethia C. Hammond",
      "Susan B. Read",
      "Correy R. Smith"
    ]
  },
  {
    "name": "Hopewell GD & JDR",
    "locality": "Hopewell",
    "type": "Combined District",
    "district": "Sixth Judicial District",
    "clerk": "Ellen Taylor Chiasson",
    "phone": "804/541-2257",
    "fax": "804/541-2364",
    "email": null,
    "address": "100 East Broadway",
    "city": "Hopewell",
    "state": "VA",
    "zip": "23860",
    "hours": "8:00AM - 4:00PM",
    "homepage": "https://www.vacourts.gov/courts/combined/hopewell/home",
    "judges": [
      "Peter D. Eliades, Presiding Judge",
      "William S Newsome, Presiding Judge",
      "Lyndia P. Ramsey, Chief Judge",
      "Elbert D. Mumphery",
      "Patricia T Watson",
      "Jacqueline R. Waymack, Chief Judge, Presiding Judge",
      "Christopher B. Ackerman, Presiding Judge",
      "Robert John Fierro Jr., Presiding Judge"
    ]
  },
  {
    "name": "Isle of Wight GD",
    "locality": "Isle of Wight",
    "type": "General District",
    "district": "Fifth Judicial District",
    "clerk": "Shayvonne M Woodley",
    "phone": "757/365-6244",
    "fax": "757/365-6246",
    "email": null,
    "address": "17000 Josiah Parker Circle, Mailing Address:  P.O. Box",
    "city": "122, Isle of Wight",
    "state": "VA",
    "zip": "23397",
    "hours": "8:00AM - 4:00PM",
    "homepage": "https://www.vacourts.gov/courts/gd/isle_of_wight/home",
    "judges": [
      "Nicole A. Belote, Presiding Judge",
      "Robert C. Barclay IV, Chief Judge",
      "Vaughn T. Breedlove"
    ]
  },
  {
    "name": "Isle Of Wight JDR",
    "locality": "Isle Of Wight",
    "type": "Juvenile & Domestic Relations",
    "district": "Fifth Judicial District",
    "clerk": "Nicole Noia Council",
    "phone": "757/365-6237",
    "fax": "757/357-9086",
    "email": null,
    "address": "P. O. Box 81, Courthouse",
    "city": "Isle Of Wight",
    "state": "VA",
    "zip": "23397",
    "hours": "8:00AM - 4:00PM",
    "homepage": "https://www.vacourts.gov/courts/jdr/isle_of_wight/home",
    "judges": ["James E. Wiser, Chief Judge, Presiding Judge", "Stan D. Clark"]
  },
  {
    "name": "King and Queen GD",
    "locality": "King and Queen",
    "type": "General District",
    "district": "Ninth Judicial District",
    "clerk": "Jill C. Hall",
    "phone": "804/785-5982",
    "fax": "804/785-5694",
    "email": null,
    "address": "242 Allens Circle, P. O. Box 86, Courthouse",
    "city": "King and Queen",
    "state": "VA",
    "zip": "23085",
    "hours": "8:30AM - 4:30PM",
    "homepage": "https://www.vacourts.gov/courts/gd/king_and_queen/home",
    "judges": [
      "Wade A. Bowie, Chief Judge",
      "Matthew D. Danielson",
      "James Anderson Mullins",
      "Stephanie M. Revere"
    ]
  },
  {
    "name": "King and Queen JDR",
    "locality": "King and Queen",
    "type": "Juvenile & Domestic Relations",
    "district": "Ninth Judicial District",
    "clerk": "Shannon Flinchum Meadowcroft",
    "phone": "804/769-4946",
    "fax": "804/769-4940",
    "email": "SMeadowcroft@vacourts.gov",
    "address": "King William Courthouse, 351 Courthouse Lane, Suite 206",
    "city": "King William",
    "state": "VA",
    "zip": "23086",
    "hours": "8:30AM - 4:30PM",
    "homepage": "https://www.vacourts.gov/courts/jdr/king_and_queen/home",
    "judges": [
      "Mara M. Matthews, Presiding Judge",
      "Matthew Rush Kite, Chief Judge",
      "Richard G. Collins",
      "Brian J. Smalls"
    ]
  },
  {
    "name": "King William GD",
    "locality": "King William",
    "type": "General District",
    "district": "Ninth Judicial District",
    "clerk": "Jill C. Hall",
    "phone": "804/769-4947",
    "fax": "804/769-4971",
    "email": null,
    "address": "351 Courthouse Lane Ste 201",
    "city": "King William",
    "state": "VA",
    "zip": "23086",
    "hours": "8:30AM - 4:30PM",
    "homepage": "https://www.vacourts.gov/courts/gd/king_william/home",
    "judges": [
      "Wade A. Bowie, Chief Judge",
      "Matthew D. Danielson",
      "James Anderson Mullins",
      "Stephanie M. Revere"
    ]
  },
  {
    "name": "King William JDR",
    "locality": "King William",
    "type": "Juvenile & Domestic Relations",
    "district": "Ninth Judicial District",
    "clerk": "Shannon Flinchum Meadowcroft",
    "phone": "804/769-4946",
    "fax": "804/769-4940",
    "email": "SMeadowcroft@vacourts.gov",
    "address": "351 Courthouse Lane, Suite 206",
    "city": "King William",
    "state": "VA",
    "zip": "23086",
    "hours": "8:30AM - 4:30PM",
    "homepage": "https://www.vacourts.gov/courts/jdr/king_william/home",
    "judges": [
      "Mara M. Matthews, Presiding Judge",
      "Matthew Rush Kite, Chief Judge",
      "Richard G. Collins",
      "Brian J. Smalls"
    ]
  },
  {
    "name": "Lancaster GD",
    "locality": "Lancaster",
    "type": "General District",
    "district": "Fifteenth Judicial District",
    "clerk": "Victoria Lee Keyser",
    "phone": "804/462-0012",
    "fax": "804/462-0371",
    "email": "vkeyser@vacourts.gov",
    "address": "8265 Mary Ball Road, Mailing Address:  P.O. Box",
    "city": "129, Lancaster",
    "state": "VA",
    "zip": "22503",
    "hours": "8:00AM - 4:00PM",
    "homepage": "https://www.vacourts.gov/courts/gd/lancaster/home",
    "judges": [
      "Hugh S. Campbell, Chief Judge",
      "Vincent S. Donoghue",
      "Richard T. McGrath",
      "Angela M. O'Connor",
      "Jane M. Reynolds",
      "Julia H. Sichol",
      "Mayo J. Wilson"
    ]
  },
  {
    "name": "Lancaster JDR",
    "locality": "Lancaster",
    "type": "Juvenile & Domestic Relations",
    "district": "Fifteenth Judicial District",
    "clerk": "Kathleen Rebecca Taft",
    "phone": "804/462-7250",
    "fax": "804/462-0308",
    "email": null,
    "address": "8265 Mary Ball Rd., P. O. Box 70",
    "city": "Lancaster",
    "state": "VA",
    "zip": "22503",
    "hours": "8:00AM - 4:30PM",
    "homepage": "https://www.vacourts.gov/courts/jdr/lancaster/home",
    "judges": [
      "Andrea M. Stewart, Chief Judge",
      "John E. Franklin",
      "Julian W. Johnson",
      "Marcel D. Jones",
      "Lisa A. Seward",
      "Frank G Uvanni",
      "Joseph A. Vance IV"
    ]
  },
  {
    "name": "Lee GD",
    "locality": "Lee",
    "type": "General District",
    "district": "Thirtieth Judicial District",
    "clerk": "Deborah D Roberts",
    "phone": "276/346-7729",
    "fax": "276/346-3302",
    "email": "droberts@vacourts.gov",
    "address": "33640 Main St, Suite 209, P. O. Box 306",
    "city": "Jonesville",
    "state": "VA",
    "zip": "24263",
    "hours": "8:00AM - 4:00PM",
    "homepage": "https://www.vacourts.gov/courts/gd/lee/home",
    "judges": ["Shawn L Hines, Chief Judge", "Andrew L. Johnson"]
  },
  {
    "name": "Lee JDR",
    "locality": "Lee",
    "type": "Juvenile & Domestic Relations",
    "district": "Thirtieth Judicial District",
    "clerk": "Carol Amy Graley",
    "phone": "276/346-7735",
    "fax": "276/346-7701",
    "email": null,
    "address": "P.O. Box 347, Lee County Courthouse, 33640 Main Street",
    "city": "Jonesville",
    "state": "VA",
    "zip": "24263",
    "hours": "8:00AM - 4:00PM",
    "homepage": "https://www.vacourts.gov/courts/jdr/lee/home",
    "judges": [
      "Marcus F. McClung, Chief Judge",
      "Kimberly M. Jenkins",
      "William Ethan Stewart"
    ]
  },
  {
    "name": "Lexington/Rockbridge GD",
    "locality": "Lexington/Rockbridge",
    "type": "General District",
    "district": "Twenty-fifth Judicial District",
    "clerk": "Jacqueline Cummins Miller",
    "phone": "540/463-3631",
    "fax": "540/463-4213",
    "email": null,
    "address": "20 South Randolph Street, Suite 200",
    "city": "Lexington",
    "state": "VA",
    "zip": "24450",
    "hours": "8:00AM - 4:00PM",
    "homepage": "https://www.vacourts.gov/courts/gd/Lexington~Rockbridge/home",
    "judges": [
      "Christopher M. Billias, Chief Judge",
      "Robin J. Mayer",
      "Rupen R. Shah",
      "David Browning Spigle"
    ]
  },
  {
    "name": "Lexington/Rockbridge JDR",
    "locality": "Lexington/Rockbridge",
    "type": "Juvenile & Domestic Relations",
    "district": "Twenty-fifth Judicial District",
    "clerk": "Teresa L. Smith",
    "phone": "540/463-5940",
    "fax": "540/463-3662",
    "email": "lexrockjdr@vacourts.gov",
    "address": "20 South Randolph Street, Suite 201",
    "city": "Lexington",
    "state": "VA",
    "zip": "24450",
    "hours": "8:00AM - 4:00PM",
    "homepage": "https://www.vacourts.gov/courts/jdr/Lexington~Rockbridge/home",
    "judges": [
      "Linda Schorsch Jones, Chief Judge",
      "Robert C. Hagan Jr.",
      "Lethia C. Hammond",
      "Susan B. Read",
      "Correy R. Smith"
    ]
  },
  {
    "name": "Loudoun GD",
    "locality": "Loudoun",
    "type": "General District",
    "district": "Twentieth Judicial District",
    "clerk": "Carla Marie Clark",
    "phone": null,
    "fax": "703/771-5284",
    "email": null,
    "address": "2 Church Street NE",
    "city": "Leesburg",
    "state": "VA",
    "zip": "20176",
    "hours": "8:00AM - 4:00PM",
    "homepage": "https://www.vacourts.gov/courts/gd/loudoun/home",
    "judges": [
      "Lorrie Ann Sinclair Taylor, Chief Judge, Presiding Judge",
      "William R. Fitzpatrick",
      "Jessica H. Foster",
      "Eric M. Shamis"
    ]
  },
  {
    "name": "Loudoun JDR",
    "locality": "Loudoun",
    "type": "Juvenile & Domestic Relations",
    "district": "Twentieth Judicial District",
    "clerk": "Christina Ann Cappello Jones",
    "phone": "703/777-0300",
    "fax": "703/771-5039",
    "email": "loudounjdr@vacourts.gov",
    "address": "18 East Market Street",
    "city": "Leesburg",
    "state": "VA",
    "zip": "20176",
    "hours": "8:00AM - 4:00PM",
    "homepage": "https://www.vacourts.gov/courts/jdr/loudoun/home",
    "judges": [
      "Melissa N. Cupp, Presiding Judge",
      "Charles Francis Koehler Jr., Presiding Judge",
      "Rachel D Robinson, Presiding Judge",
      "Pamela L. Brooks, Chief Judge"
    ]
  },
  {
    "name": "Louisa GD",
    "locality": "Louisa",
    "type": "General District",
    "district": "Sixteenth Judicial District",
    "clerk": "Brandy S Alexander",
    "phone": "540/967-5330",
    "fax": "540/967-2369",
    "email": null,
    "address": "P. O. Box 524, 314 West Main Street",
    "city": "Louisa",
    "state": "VA",
    "zip": "23093",
    "hours": "8:00AM - 4:00PM",
    "homepage": "https://www.vacourts.gov/courts/gd/louisa/home",
    "judges": [
      "Claiborne H. Stokes Jr., Chief Judge",
      "Theresa W. Carter",
      "Matthew J. Quatrara",
      "Kenneth Andrew Sneathern"
    ]
  },
  {
    "name": "Louisa JDR",
    "locality": "Louisa",
    "type": "Juvenile & Domestic Relations",
    "district": "Sixteenth Judicial District",
    "clerk": "Toni P. Seay",
    "phone": "540/967-5337",
    "fax": "540/967-1914",
    "email": "TSeay@vacourts.gov",
    "address": "P. O. Box 452, 314 West Main Street",
    "city": "Louisa",
    "state": "VA",
    "zip": "23093",
    "hours": "8:30AM - 4:30PM",
    "homepage": "https://www.vacourts.gov/courts/jdr/louisa/home",
    "judges": [
      "Deborah S. Tinsley, Chief Judge, Presiding Judge",
      "Areshini Pather, Presiding Judge",
      "Peter K. Griffith",
      "Kara L. Larson",
      "Barbara G. Lowe",
      "Ronald L. Morris"
    ]
  },
  {
    "name": "Lunenburg GD & JDR",
    "locality": "Lunenburg",
    "type": "Combined District",
    "district": "Tenth Judicial District",
    "clerk": "Madison Goodwin",
    "phone": "434/696-5508",
    "fax": "434/696-3665",
    "email": null,
    "address": "160 Courthouse Square, Suite 201, Physical Address: 11435, Courthouse Rd, Lunenburg VA",
    "city": "Lunenburg",
    "state": "VA",
    "zip": "23952",
    "hours": "8:30AM - 4:30PM",
    "homepage": "https://www.vacourts.gov/courts/combined/lunenburg/home",
    "judges": [
      "Calvin S. Spencer Jr., Chief Judge",
      "Jody H. Fariss",
      "Darrel W. Puckett",
      "Marvin H. Dunkum Jr., Chief Judge",
      "Brendan U. Dunning",
      "Nora J. Miller"
    ]
  },
  {
    "name": "Lynchburg GD",
    "locality": "Lynchburg",
    "type": "General District",
    "district": "Twenty-fourth Judicial District",
    "clerk": "Amy Showalter Leftwich",
    "phone": "434/455-2640",
    "phones": {
      "Civil": "434/455-2640"
    },
    "fax": "434/847-1779",
    "email": null,
    "address": "905 Court Street",
    "city": "Lynchburg",
    "state": "VA",
    "zip": "24504",
    "hours": "8:00AM - 4:00PM",
    "homepage": "https://www.vacourts.gov/courts/gd/lynchburg/home",
    "judges": [
      "Stephanie S. Maddox, Presiding Judge",
      "Sam Daniel Eggleston III, Chief Judge",
      "Randy C. Krantz"
    ]
  },
  {
    "name": "Lynchburg JDR",
    "locality": "Lynchburg",
    "type": "Juvenile & Domestic Relations",
    "district": "Twenty-fourth Judicial District",
    "clerk": "Victoria Anthia Baez",
    "phone": "434/455-2670",
    "fax": "434/847-1442",
    "email": null,
    "address": "909 Court Street, 1st Level",
    "city": "Lynchburg",
    "state": "VA",
    "zip": "24504",
    "hours": "8:00AM - 4:00PM",
    "homepage": "https://www.vacourts.gov/courts/jdr/lynchburg/home",
    "judges": [
      "H. Cary Payne, Presiding Judge",
      "Jennifer E. Stille, Chief Judge",
      "Eugene N. Butler",
      "Brooke Taylor Willse Gaddy",
      "Robert Louis Harrison Jr.",
      "Stephanie Mutter-Ayers"
    ]
  },
  {
    "name": "Madison GD & JDR",
    "locality": "Madison",
    "type": "Combined District",
    "district": "Sixteenth Judicial District",
    "clerk": "Sarah Elizabeth Kirton",
    "phone": "540/948-4657",
    "fax": "540-948-5649 (secondary fax)",
    "email": null,
    "address": "2 Main Street (General District), 1 Main Street, Lower Level (J&DR), P. O. Box 470",
    "city": "Madison",
    "state": "VA",
    "zip": "22727",
    "hours": "8:30AM - 4:30PM",
    "homepage": "https://www.vacourts.gov/courts/combined/madison/home",
    "judges": [
      "Claiborne H. Stokes Jr., Chief Judge",
      "Theresa W. Carter",
      "Matthew J. Quatrara",
      "Kenneth Andrew Sneathern",
      "Deborah S. Tinsley, Chief Judge, Presiding Judge",
      "Peter K. Griffith",
      "Kara L. Larson",
      "Barbara G. Lowe",
      "Ronald L. Morris",
      "Areshini Pather"
    ]
  },
  {
    "name": "Martinsville GD",
    "locality": "Martinsville",
    "type": "General District",
    "district": "Twenty-first Judicial District",
    "clerk": "Teresa Davis Queen",
    "phone": "276/403-5125",
    "fax": "276/403-5114",
    "email": null,
    "address": "Municipal Building, 55 West Church Street, P. O. Box 1402",
    "city": "Martinsville",
    "state": "VA",
    "zip": "24114",
    "hours": "8:30AM - 4:30PM",
    "homepage": "https://www.vacourts.gov/courts/gd/martinsville/home",
    "judges": ["Joan Ziglar, Chief Judge", "Stephanie B. Vipperman"]
  },
  {
    "name": "Martinsville JDR",
    "locality": "Martinsville",
    "type": "Juvenile & Domestic Relations",
    "district": "Twenty-first Judicial District",
    "clerk": "Teresa D. Renz",
    "phone": "276/403-5168",
    "fax": "276/656-5234",
    "email": "TRenz@vacourts.gov",
    "address": "Municipal Building, 55 W. Church Street",
    "city": "Martinsville",
    "state": "VA",
    "zip": "24114",
    "hours": "8:30AM - 4:30PM",
    "homepage": "https://www.vacourts.gov/courts/jdr/martinsville/home",
    "judges": [
      "Kimberly R. Belongia, Chief Judge, Presiding Judge",
      "Christina L Slate"
    ]
  },
  {
    "name": "Mathews GD",
    "locality": "Mathews",
    "type": "General District",
    "district": "Ninth Judicial District",
    "clerk": "Amy Sue Blake",
    "phone": "804/725-2242",
    "phones": {
      "other": "804/725-2242"
    },
    "fax": "804/725-2263",
    "email": "ablake@vacourts.gov",
    "address": "Mailing Address: P.O. Box",
    "city": "434, Mathews",
    "state": "VA",
    "zip": "23109",
    "hours": "8:00AM - 4:00PM",
    "homepage": "https://www.vacourts.gov/courts/gd/mathews/home",
    "judges": [
      "Stephanie M. Revere, Presiding Judge",
      "Wade A. Bowie, Chief Judge",
      "Matthew D. Danielson",
      "James Anderson Mullins"
    ]
  },
  {
    "name": "Mathews JDR",
    "locality": "Mathews",
    "type": "Juvenile & Domestic Relations",
    "district": "Ninth Judicial District",
    "clerk": "Deanna L McKinnon",
    "phone": "804/693-4850",
    "fax": "804/693-7904",
    "email": null,
    "address": "7400 Justice Drive, Room 204, Courthouse address:  10622, Buckley Hall Road, Mathews,",
    "city": "Gloucester",
    "state": "VA",
    "zip": "23061",
    "hours": "8:00AM - 4:00PM",
    "homepage": "https://www.vacourts.gov/courts/jdr/mathews/home",
    "judges": [
      "Matthew Rush Kite, Chief Judge, Presiding Judge",
      "Richard G. Collins",
      "Mara M. Matthews",
      "Brian J. Smalls"
    ]
  },
  {
    "name": "Mecklenburg GD",
    "locality": "Mecklenburg",
    "type": "General District",
    "district": "Tenth Judicial District",
    "clerk": "Tammy Tollerson Taylor",
    "phone": "434/738-6260",
    "fax": "434/738-0761",
    "email": null,
    "address": "911 Madison Street, P. O. Box 306",
    "city": "Boydton",
    "state": "VA",
    "zip": "23917",
    "hours": "8:00AM - 4:00PM",
    "homepage": "https://www.vacourts.gov/courts/gd/mecklenburg/home",
    "judges": [
      "Calvin S. Spencer Jr., Chief Judge",
      "Jody H. Fariss",
      "Darrel W. Puckett"
    ]
  },
  {
    "name": "Mecklenburg JDR",
    "locality": "Mecklenburg",
    "type": "Juvenile & Domestic Relations",
    "district": "Tenth Judicial District",
    "clerk": "Charlene C. Williamson",
    "phone": null,
    "fax": "434/738-0311",
    "email": null,
    "address": "P. O. Box 340, 911 Madison Street",
    "city": "Boydton",
    "state": "VA",
    "zip": "23917",
    "hours": "8:30AM - 4:30PM",
    "homepage": "https://www.vacourts.gov/courts/jdr/mecklenburg/home",
    "judges": [
      "Nora J. Miller, Presiding Judge",
      "Marvin H. Dunkum Jr., Chief Judge",
      "Brendan U. Dunning"
    ]
  },
  {
    "name": "Middlesex GD",
    "locality": "Middlesex",
    "type": "General District",
    "district": "Ninth Judicial District",
    "clerk": "Amy Sue Blake",
    "phone": "804/758-4312",
    "fax": "804/758-4343",
    "email": "ablake@vacourts.gov",
    "address": "73 Bowden Street, Mailing Address: P.O. Box",
    "city": "169, Saluda",
    "state": "VA",
    "zip": "23149",
    "hours": "8:00AM - 4:00PM",
    "homepage": "https://www.vacourts.gov/courts/gd/middlesex/home",
    "judges": [
      "Stephanie M. Revere, Presiding Judge",
      "Wade A. Bowie, Chief Judge",
      "Matthew D. Danielson",
      "James Anderson Mullins"
    ]
  },
  {
    "name": "Middlesex JDR",
    "locality": "Middlesex",
    "type": "Juvenile & Domestic Relations",
    "district": "Ninth Judicial District",
    "clerk": "Deanna L McKinnon",
    "phone": "804/693-4850",
    "fax": "804/693-7904",
    "email": null,
    "address": "7400 Justice Drive, Room 204, Courthouse address:  73, Bowden Street, Saluda, VA",
    "city": "Gloucester",
    "state": "VA",
    "zip": "23061",
    "hours": "8:00AM - 4:00PM",
    "homepage": "https://www.vacourts.gov/courts/jdr/middlesex/home",
    "judges": [
      "Matthew Rush Kite, Chief Judge, Presiding Judge",
      "Mara M. Matthews, Presiding Judge",
      "Richard G. Collins",
      "Brian J. Smalls"
    ]
  },
  {
    "name": "Montgomery GD",
    "locality": "Montgomery",
    "type": "General District",
    "district": "Twenty-seventh Judicial District",
    "clerk": "Kimberly W. McKittrick",
    "phone": "540/394-2085",
    "phones": {
      "Civil": "540/394-2085"
    },
    "fax": "Civil: 540/381-6868",
    "email": null,
    "address": "55 East Main Street, Third Floor",
    "city": "Christiansburg",
    "state": "VA",
    "zip": "24073",
    "hours": "8:30AM - 4:30PM",
    "homepage": "https://www.vacourts.gov/courts/gd/montgomery/home",
    "judges": [
      "Randal J. Duncan, Presiding Judge",
      "Gino W. Williams, Presiding Judge",
      "Gerald Eugene Mabe II, Chief Judge",
      "J. D. Bolt",
      "Erin J. DeHart"
    ]
  },
  {
    "name": "Montgomery JDR",
    "locality": "Montgomery",
    "type": "Juvenile & Domestic Relations",
    "district": "Twenty-seventh Judicial District",
    "clerk": "Amie B. Blankenship",
    "phone": "540/382-6999",
    "fax": "540/381-6848",
    "email": null,
    "address": "55 East Main Street, Suite 2A",
    "city": "Christiansburg",
    "state": "VA",
    "zip": "24073",
    "hours": "8:30AM - 4:30PM",
    "homepage": "https://www.vacourts.gov/courts/jdr/montgomery/home",
    "judges": [
      "Bradley G Dalton, Chief Judge",
      "Howard Lee Chitwood",
      "Monica D. Cox",
      "Ryan D. Hamrick",
      "Stephanie Murray Shortt"
    ]
  },
  {
    "name": "Nelson GD",
    "locality": "Nelson",
    "type": "General District",
    "district": "Twenty-fourth Judicial District",
    "clerk": "Ashley Melton Johnson",
    "phone": "434/263-7040",
    "fax": "434/263-7033",
    "email": null,
    "address": "P. O. Box 514, 84 Courthouse Square",
    "city": "Lovingston",
    "state": "VA",
    "zip": "22949",
    "hours": "8:00AM - 4:00PM",
    "homepage": "https://www.vacourts.gov/courts/gd/nelson/home",
    "judges": [
      "Sam Daniel Eggleston III, Chief Judge",
      "Randy C. Krantz",
      "Stephanie S. Maddox"
    ]
  },
  {
    "name": "Nelson JDR",
    "locality": "Nelson",
    "type": "Juvenile & Domestic Relations",
    "district": "Twenty-fourth Judicial District",
    "clerk": "Heather Hall Stevens",
    "phone": "434/263-7030",
    "fax": "434/263-7044",
    "email": null,
    "address": "P. O. Box 7, 84 Courthouse Square",
    "city": "Lovingston",
    "state": "VA",
    "zip": "22949",
    "hours": "8:00AM - 4:00PM",
    "homepage": "https://www.vacourts.gov/courts/jdr/nelson/home",
    "judges": [
      "Jennifer E. Stille, Chief Judge, Presiding Judge",
      "Eugene N. Butler",
      "Brooke Taylor Willse Gaddy",
      "Robert Louis Harrison Jr.",
      "Stephanie Mutter-Ayers",
      "H. Cary Payne"
    ]
  },
  {
    "name": "New Kent GD",
    "locality": "New Kent",
    "type": "General District",
    "district": "Ninth Judicial District",
    "clerk": "Rachel Mills Lanham",
    "phone": "804/966-9530",
    "fax": "804/966-9535",
    "email": "newkentgd@vacourts.gov",
    "address": "P. O. Box 127, 12001 Courthouse Circle",
    "city": "New Kent",
    "state": "VA",
    "zip": "23124",
    "hours": "8:30AM - 4:30PM",
    "homepage": "https://www.vacourts.gov/courts/gd/new_kent/home",
    "judges": [
      "Wade A. Bowie, Chief Judge, Presiding Judge",
      "Stephanie M. Revere, Presiding Judge",
      "Matthew D. Danielson",
      "James Anderson Mullins"
    ]
  },
  {
    "name": "New Kent JDR",
    "locality": "New Kent",
    "type": "Juvenile & Domestic Relations",
    "district": "Ninth Judicial District",
    "clerk": "Kelly Douglas Wiggins",
    "phone": "804/966-9620",
    "fax": "804/966-9091",
    "email": null,
    "address": "12001 Courthouse Circle, 2nd Floor, P. O. Box 174",
    "city": "New Kent",
    "state": "VA",
    "zip": "23124",
    "hours": "8:30AM - 4:30PM",
    "homepage": "https://www.vacourts.gov/courts/jdr/new_kent/home",
    "judges": [
      "Mara M. Matthews, Presiding Judge",
      "Matthew Rush Kite, Chief Judge",
      "Richard G. Collins",
      "Brian J. Smalls"
    ]
  },
  {
    "name": "Newport News JDR",
    "locality": "Newport News",
    "type": "Juvenile & Domestic Relations",
    "district": "Seventh Judicial District",
    "clerk": "Tammy Lashon Butler",
    "phone": "757/926-3603",
    "fax": "757/926-7150",
    "email": null,
    "address": "2501 Huntington Avenue",
    "city": "Newport News",
    "state": "VA",
    "zip": "23607",
    "hours": "8:00AM - 4:00PM",
    "homepage": "https://www.vacourts.gov/courts/jdr/newport_news/home",
    "judges": [
      "Kimberly Anne Kurkjian, Presiding Judge",
      "Jeffrey C. Rountree, Presiding Judge",
      "Michael W. Smith, Presiding Judge",
      "Shawn W. Overbey, Chief Judge"
    ]
  },
  {
    "name": "Norfolk GD",
    "locality": "Norfolk",
    "type": "General District",
    "district": "Fourth Judicial District",
    "clerk": "Jennifer Leigh Morgan",
    "phone": "757/664-4910",
    "fax": "Traffic: 757/640-8319",
    "email": null,
    "address": "150 Saint Paul's Blvd, Room 3202",
    "city": "Norfolk",
    "state": "VA",
    "zip": "23510",
    "hours": "8:00AM - 4:00PM",
    "homepage": "https://www.vacourts.gov/courts/gd/norfolk/home",
    "judges": [
      "Leondras J. Webster, Chief Judge",
      "Robert Lamar Foley",
      "Erikka Monet Massie",
      "Joseph W. Myers",
      "Michael C. Rosenblum",
      "Tameeka M. Williams"
    ]
  },
  {
    "name": "Norfolk JDR",
    "locality": "Norfolk",
    "type": "Juvenile & Domestic Relations",
    "district": "Fourth Judicial District",
    "clerk": "Joan Marie Butt",
    "phone": "757/664-7340",
    "fax": "757/823-1461",
    "email": null,
    "address": "150 St. Paul's Boulevard, 5th Floor",
    "city": "Norfolk",
    "state": "VA",
    "zip": "23510",
    "hours": "8:00AM - 4:00PM",
    "homepage": "https://www.vacourts.gov/courts/jdr/norfolk/home",
    "judges": [
      "Lyn M. Simmons, Chief Judge, Presiding Judge",
      "Michael Angelo Beverly, Presiding Judge",
      "Lauri DiEnno Hogge, Presiding Judge",
      "Kimberly Hughes Phillips, Presiding Judge",
      "Robert McLanahan Smith III, Presiding Judge"
    ]
  },
  {
    "name": "Northampton GD",
    "locality": "Northampton",
    "type": "General District",
    "district": "2A Judicial District",
    "clerk": "Karen Sparrow Merritt",
    "phone": "757/678-0466",
    "fax": null,
    "email": null,
    "address": "5229 The Hornes",
    "city": "Eastville",
    "state": "VA",
    "zip": "23347",
    "hours": "8:30AM - 4:30PM",
    "homepage": "https://www.vacourts.gov/courts/gd/northampton/home",
    "judges": ["Patrick A. Robbins, Chief Judge", "James M Haynes Jr."]
  },
  {
    "name": "Northampton JDR",
    "locality": "Northampton",
    "type": "Juvenile & Domestic Relations",
    "district": "2A Judicial District",
    "clerk": "Francine W. Williams",
    "phone": "757/678-1269",
    "fax": "757/678-5375",
    "email": "fwwilliams@vacourts.gov",
    "address": "P. O. Box 125, 5229 The Hornes, 2nd Floor",
    "city": "Eastville",
    "state": "VA",
    "zip": "23347",
    "hours": "8:00AM - 4:30PM",
    "homepage": "https://www.vacourts.gov/courts/jdr/northampton/home",
    "judges": ["Cela J. Burge, Chief Judge"]
  },
  {
    "name": "Northumberland GD",
    "locality": "Northumberland",
    "type": "General District",
    "district": "Fifteenth Judicial District",
    "clerk": "Angela W Tadlock",
    "phone": "804/580-4323",
    "fax": "804/580-6702",
    "email": "atadlock@vacourts.gov",
    "address": "220 Judicial Place, P.O. Box 114",
    "city": "Heathsville",
    "state": "VA",
    "zip": "22473",
    "hours": "8:00AM - 4:30PM",
    "homepage": "https://www.vacourts.gov/courts/gd/northumberland/home",
    "judges": [
      "Hugh S. Campbell, Chief Judge",
      "Vincent S. Donoghue",
      "Richard T. McGrath",
      "Angela M. O'Connor",
      "Jane M. Reynolds",
      "Julia H. Sichol",
      "Mayo J. Wilson"
    ]
  },
  {
    "name": "Northumberland JDR",
    "locality": "Northumberland",
    "type": "Juvenile & Domestic Relations",
    "district": "Fifteenth Judicial District",
    "clerk": "Kathleen Rebecca Taft",
    "phone": "804/580-6635",
    "fax": "804/580-5901",
    "email": null,
    "address": "P. O. Box 237, 220 Judicial Place",
    "city": "Heathsville",
    "state": "VA",
    "zip": "22473",
    "hours": "8:00AM - 4:30PM",
    "homepage": "https://www.vacourts.gov/courts/jdr/northumberland/home",
    "judges": [
      "Andrea M. Stewart, Chief Judge",
      "John E. Franklin",
      "Julian W. Johnson",
      "Marcel D. Jones",
      "Lisa A. Seward",
      "Frank G Uvanni",
      "Joseph A. Vance IV"
    ]
  },
  {
    "name": "Nottoway GD & JDR",
    "locality": "Nottoway",
    "type": "Combined District",
    "district": "Eleventh Judicial District",
    "clerk": "Mary R. Childress",
    "phone": "434/645-9312",
    "fax": "434/645-8584",
    "email": "mchildress@vacourts.gov",
    "address": "328 West Courthouse Road, P. O. Box 25",
    "city": "Nottoway",
    "state": "VA",
    "zip": "23955",
    "hours": "8:00AM - 4:15PM",
    "homepage": "https://www.vacourts.gov/courts/combined/nottoway/home",
    "judges": [
      "Thomas Stark IV, Chief Judge",
      "Kenneth A. Blalock",
      "Brian H. Jones",
      "Cheryl J. Wilson, Chief Judge",
      "Phillip T. DiStanislao",
      "Theresa J. Royall"
    ]
  },
  {
    "name": "Orange GD",
    "locality": "Orange",
    "type": "General District",
    "district": "Sixteenth Judicial District",
    "clerk": "Sheila Alexander Lewis",
    "phone": "540/672-6164",
    "fax": "540/672-9438",
    "email": null,
    "address": "110 North Madison Road, Suite 100",
    "city": "Orange",
    "state": "VA",
    "zip": "22960",
    "hours": "8:30AM - 4:30PM",
    "homepage": "https://www.vacourts.gov/courts/gd/orange/home",
    "judges": [
      "Claiborne H. Stokes Jr., Chief Judge",
      "Theresa W. Carter",
      "Matthew J. Quatrara",
      "Kenneth Andrew Sneathern"
    ]
  },
  {
    "name": "Orange JDR",
    "locality": "Orange",
    "type": "Juvenile & Domestic Relations",
    "district": "Sixteenth Judicial District",
    "clerk": "Barbara B Miller",
    "phone": "540/661-5320",
    "fax": "Fax: (540) 672-2090",
    "email": null,
    "address": "110 North Madison Road, Suite 200",
    "city": "P.O. Box 821, Orange",
    "state": "VA",
    "zip": "22960",
    "hours": "8:30AM - 4:30PM",
    "homepage": "https://www.vacourts.gov/courts/jdr/orange/home",
    "judges": [
      "Ronald L. Morris, Presiding Judge",
      "Deborah S. Tinsley, Chief Judge",
      "Peter K. Griffith",
      "Kara L. Larson",
      "Barbara G. Lowe",
      "Areshini Pather"
    ]
  },
  {
    "name": "Page GD",
    "locality": "Page",
    "type": "General District",
    "district": "Twenty-sixth Judicial District",
    "clerk": "Lekha Lyn Varghese",
    "phone": "540/743-5705",
    "fax": "540/743-5334",
    "email": null,
    "address": "116 South Court Street, Suite B",
    "city": "Luray",
    "state": "VA",
    "zip": "22835",
    "hours": "8:00AM - 4:00PM",
    "homepage": "https://www.vacourts.gov/courts/gd/page/home",
    "judges": [
      "Amy B. Tisinger, Chief Judge",
      "Kenneth L. Alger II",
      "Mary Louise Costello Daniel",
      "Louis K. Nagy",
      "Anne M. Williams"
    ]
  },
  {
    "name": "Page JDR",
    "locality": "Page",
    "type": "Juvenile & Domestic Relations",
    "district": "Twenty-sixth Judicial District",
    "clerk": "Lindsey Nicole Short",
    "phone": "540/743-4152",
    "fax": "540/743-4690",
    "email": "LShort@vacourts.gov",
    "address": "116 South Court Street, Suite F",
    "city": "Luray",
    "state": "VA",
    "zip": "22835",
    "hours": "8:00AM - 4:00PM",
    "homepage": "https://www.vacourts.gov/courts/jdr/page/home",
    "judges": [
      "Chad A. Logan, Presiding Judge",
      "Kimberly Marion Athey, Chief Judge",
      "Elizabeth Kellas Burton",
      "Bryan M Cave",
      "James A. Drown",
      "Rachel E. Figura",
      "Nancie Williams"
    ]
  },
  {
    "name": "Patrick GD",
    "locality": "Patrick",
    "type": "General District",
    "district": "Twenty-first Judicial District",
    "clerk": "Amanda Scearce Nester",
    "phone": "276/694-7258",
    "fax": "276/694-5614",
    "email": null,
    "address": "P. O. Box 149, 106 Rucker Street",
    "city": "Stuart",
    "state": "VA",
    "zip": "24171",
    "hours": "8:30AM - 4:30PM",
    "homepage": "https://www.vacourts.gov/courts/gd/patrick/home",
    "judges": [
      "Joan Ziglar, Chief Judge, Presiding Judge",
      "Stephanie B. Vipperman"
    ]
  },
  {
    "name": "Patrick JDR",
    "locality": "Patrick",
    "type": "Juvenile & Domestic Relations",
    "district": "Twenty-first Judicial District",
    "clerk": "Michele Joyce Bryant",
    "phone": "276/694-3927",
    "fax": "276/694-7471",
    "email": "mbryant@vacourts.gov",
    "address": "P. O. Box 452, 106 Rucker Street, Suite 320",
    "city": "Stuart",
    "state": "VA",
    "zip": "24171",
    "hours": "8:00AM - 5:00PM",
    "homepage": "https://www.vacourts.gov/courts/jdr/patrick/home",
    "judges": [
      "Kimberly R. Belongia, Chief Judge, Presiding Judge",
      "Christina L Slate"
    ]
  },
  {
    "name": "Petersburg GD",
    "locality": "Petersburg",
    "type": "General District",
    "district": "Eleventh Judicial District",
    "clerk": "Kendra Lenae Prosise",
    "phone": "804/733-2374",
    "fax": "804/481-8586",
    "email": null,
    "address": "35 East Tabb Street",
    "city": "Petersburg",
    "state": "VA",
    "zip": "23803",
    "hours": "8:00AM - 4:00PM",
    "homepage": "https://www.vacourts.gov/courts/gd/petersburg/home",
    "judges": [
      "Thomas Stark IV, Chief Judge",
      "Kenneth A. Blalock",
      "Brian H. Jones"
    ]
  },
  {
    "name": "Petersburg JDR",
    "locality": "Petersburg",
    "type": "Juvenile & Domestic Relations",
    "district": "Eleventh Judicial District",
    "clerk": "Laura B. Craig",
    "phone": "804/733-2372",
    "fax": "804/481-8591",
    "email": "LCraig@vacourts.gov",
    "address": "27 East Tabb Street",
    "city": "Petersburg",
    "state": "VA",
    "zip": "23803",
    "hours": "8:00AM - 4:00PM",
    "homepage": "https://www.vacourts.gov/courts/jdr/petersburg/home",
    "judges": [
      "Cheryl J. Wilson, Chief Judge, Presiding Judge",
      "Phillip T. DiStanislao, Presiding Judge",
      "Theresa J. Royall"
    ]
  },
  {
    "name": "Pittsylvania GD",
    "locality": "Pittsylvania",
    "type": "General District",
    "district": "Twenty-second Judicial District",
    "clerk": "M. LeAnn Holland",
    "phone": "434/432-7879",
    "fax": "434/432-7915",
    "email": null,
    "address": "11 Bank Street, Suite 201, P.O. Box 695",
    "city": "Chatham",
    "state": "VA",
    "zip": "24531",
    "hours": "8:30AM - 4:30PM",
    "homepage": "https://www.vacourts.gov/courts/gd/pittsylvania/home",
    "judges": [
      "Leslie R. (Les) Adams, Presiding Judge",
      "Allen W. (A.J.) Dudley Jr., Chief Judge",
      "Greg T. Haymore"
    ]
  },
  {
    "name": "Pittsylvania JDR",
    "locality": "Pittsylvania",
    "type": "Juvenile & Domestic Relations",
    "district": "Twenty-second Judicial District",
    "clerk": "Lauren Dawn White",
    "phone": "434/432-7861",
    "fax": "434/432-7908",
    "email": null,
    "address": "P. O. Box 270, E.R. Shields Courthouse Addition, 5 Bank St., 3rd floor",
    "city": "Chatham",
    "state": "VA",
    "zip": "24531",
    "hours": "8:00AM - 4:00PM",
    "homepage": "https://www.vacourts.gov/courts/jdr/pittsylvania/home",
    "judges": [
      "Deanna Perdue Stone, Chief Judge",
      "Pamela Melissa P. Keen",
      "Claudette S Robertson"
    ]
  },
  {
    "name": "Portsmouth GD",
    "locality": "Portsmouth",
    "type": "General District",
    "district": "Third Judicial District",
    "clerk": "Kelly Newby Boyd",
    "phone": "757/393-8681",
    "phones": {
      "Criminal": "757/393-8681",
      "Traffic": "757/393-8506",
      "Civil": "757/393-8624"
    },
    "fax": "Civil: 757/399-6736",
    "email": null,
    "address": "1345 Court Street, Suite 104, P. O. Box 129",
    "city": "Portsmouth",
    "state": "VA",
    "zip": "23704",
    "hours": "8:00AM - 4:00PM",
    "homepage": "https://www.vacourts.gov/courts/gd/portsmouth/home",
    "judges": [
      "Jon M. Babineau Sr., Chief Judge, Presiding Judge",
      "Elliott O. Moody, Presiding Judge"
    ]
  },
  {
    "name": "Portsmouth JDR",
    "locality": "Portsmouth",
    "type": "Juvenile & Domestic Relations",
    "district": "Third Judicial District",
    "clerk": "Courtney E Nicolas",
    "phone": "757/393-8851",
    "fax": "757/393-2020",
    "email": null,
    "address": "1345 Court Street, Suite 103",
    "city": "Portsmouth",
    "state": "VA",
    "zip": "23704",
    "hours": "8:00AM - 4:00PM",
    "homepage": "https://www.vacourts.gov/courts/jdr/portsmouth/home",
    "judges": [
      "Bryan K. Meals, Chief Judge, Presiding Judge",
      "Solomon H Ashby Jr., Presiding Judge",
      "Diane P. Griffin, Presiding Judge"
    ]
  },
  {
    "name": "Powhatan GD & JDR",
    "locality": "Powhatan",
    "type": "Combined District",
    "district": "Eleventh Judicial District",
    "clerk": "Lamar Maurice Crockett",
    "phone": "804/598-5665",
    "fax": "804/598-5648",
    "email": null,
    "address": "3880-D Old Buckingham Road, Courthouse",
    "city": "Powhatan",
    "state": "VA",
    "zip": "23139",
    "hours": "8:00AM - 4:00PM",
    "homepage": "https://www.vacourts.gov/courts/combined/powhatan/home",
    "judges": [
      "Thomas Stark IV, Chief Judge, Presiding Judge",
      "Kenneth A. Blalock",
      "Brian H. Jones",
      "Theresa J. Royall, Presiding Judge",
      "Cheryl J. Wilson, Chief Judge",
      "Phillip T. DiStanislao"
    ]
  },
  {
    "name": "Prince Edward GD",
    "locality": "Prince Edward",
    "type": "General District",
    "district": "Tenth Judicial District",
    "clerk": "Lindsey Alexander Green",
    "phone": "434/392-4024",
    "fax": "434/392-3800",
    "email": null,
    "address": "111 South Street, Courthouse Building, P.O. Box 41",
    "city": "Farmville",
    "state": "VA",
    "zip": "23901",
    "hours": "8:00AM - 4:15PM",
    "homepage": "https://www.vacourts.gov/courts/gd/prince_edward/home",
    "judges": [
      "Jody H. Fariss, Presiding Judge",
      "Calvin S. Spencer Jr., Chief Judge",
      "Darrel W. Puckett"
    ]
  },
  {
    "name": "Prince Edward JDR",
    "locality": "Prince Edward",
    "type": "Juvenile & Domestic Relations",
    "district": "Tenth Judicial District",
    "clerk": "Selena Shavette Eppes",
    "phone": "434/392-3343",
    "fax": "434/392-1470",
    "email": "SEppes@vacourts.gov",
    "address": "111 South Street, 1st Floor, Courthouse Building, P.O. Box 21",
    "city": "Farmville",
    "state": "VA",
    "zip": "23901",
    "hours": "8:30AM - 4:30PM",
    "homepage": "https://www.vacourts.gov/courts/jdr/prince_edward/home",
    "judges": [
      "Marvin H. Dunkum Jr., Chief Judge, Presiding Judge",
      "Brendan U. Dunning",
      "Nora J. Miller"
    ]
  },
  {
    "name": "Prince George GD & JDR",
    "locality": "Prince George",
    "type": "Combined District",
    "district": "Sixth Judicial District",
    "clerk": "Edmonia Michelle Frederick",
    "phone": null,
    "fax": "804-733-2678",
    "email": null,
    "address": "6601 Courts Drive, P. O. Box 187",
    "city": "Prince George",
    "state": "VA",
    "zip": "23875",
    "hours": "8:00AM - 4:00PM",
    "homepage": "https://www.vacourts.gov/courts/combined/prince_george/home",
    "judges": [
      "Lyndia P. Ramsey, Chief Judge",
      "Peter D. Eliades",
      "Elbert D. Mumphery",
      "William S Newsome",
      "Patricia T Watson",
      "Jacqueline R. Waymack, Chief Judge, Presiding Judge",
      "Christopher B. Ackerman",
      "Robert John Fierro Jr."
    ]
  },
  {
    "name": "Prince William GD",
    "locality": "Prince William",
    "type": "General District",
    "district": "Thirty-first Judicial District",
    "clerk": "Keshara Joyce Luster",
    "phone": "703/792-6141",
    "fax": "703/792-6646 (Civil Division)",
    "email": null,
    "address": "9311 Lee Avenue",
    "city": "Manassas",
    "state": "VA",
    "zip": "20110",
    "hours": "8:00AM - 4:00PM",
    "homepage": "https://www.vacourts.gov/courts/gd/prince_william/home",
    "judges": [
      "Che Christopher Rogers, Chief Judge, Presiding Judge",
      "Wallace Semeon Covington III, Presiding Judge",
      "Abigail A. Miller, Presiding Judge",
      "Turkessa B. Rollins, Presiding Judge",
      "Kristi Malei Caturano",
      "Fernando Villarroel"
    ]
  },
  {
    "name": "Prince William JDR",
    "locality": "Prince William",
    "type": "Juvenile & Domestic Relations",
    "district": "Thirty-first Judicial District",
    "clerk": "Monica J. Burnett",
    "phone": "703/792-6160",
    "fax": "703 7927863",
    "email": null,
    "address": "9311 Lee Avenue, First Floor",
    "city": "Manassas",
    "state": "VA",
    "zip": "20110",
    "hours": "8:00AM - 4:00PM",
    "homepage": "https://www.vacourts.gov/courts/jdr/prince_william/home",
    "judges": [
      "Carlos J. Flores Laboy, Chief Judge, Presiding Judge",
      "D. Scott Bailey, Presiding Judge",
      "Susan M. Butler, Presiding Judge",
      "Jacqueline W. Lucas, Presiding Judge",
      "Katherine C. McCollam, Presiding Judge",
      "Kiah D. Spinks, Presiding Judge"
    ]
  },
  {
    "name": "Pulaski GD",
    "locality": "Pulaski",
    "type": "General District",
    "district": "Twenty-seventh Judicial District",
    "clerk": "Anna E. Smythers-Stitt",
    "phone": "540/980-7470",
    "fax": "540/980-7792",
    "email": null,
    "address": "45 Third Street, N.W., Suite 102, Courthouse",
    "city": "Pulaski",
    "state": "VA",
    "zip": "24301",
    "hours": "8:30AM - 4:30PM",
    "homepage": "https://www.vacourts.gov/courts/gd/pulaski/home",
    "judges": [
      "Gerald Eugene Mabe II, Chief Judge",
      "J. D. Bolt",
      "Erin J. DeHart",
      "Randal J. Duncan",
      "Gino W. Williams"
    ]
  },
  {
    "name": "Pulaski JDR",
    "locality": "Pulaski",
    "type": "Juvenile & Domestic Relations",
    "district": "Twenty-seventh Judicial District",
    "clerk": "Amanda Nicole Blair",
    "phone": "540/980-3822",
    "fax": "540/980-7891",
    "email": null,
    "address": "45 Third Street, N.W., Suite 103",
    "city": "Pulaski",
    "state": "VA",
    "zip": "24301",
    "hours": "8:30AM - 4:30PM",
    "homepage": "https://www.vacourts.gov/courts/jdr/pulaski/home",
    "judges": [
      "Howard Lee Chitwood, Presiding Judge",
      "Bradley G Dalton, Chief Judge",
      "Monica D. Cox",
      "Ryan D. Hamrick",
      "Stephanie Murray Shortt"
    ]
  },
  {
    "name": "Radford GD & JDR",
    "locality": "Radford",
    "type": "Combined District",
    "district": "Twenty-seventh Judicial District",
    "clerk": "Ruby R Stump",
    "phone": "540/731-3609",
    "fax": "540/731-3692",
    "email": null,
    "address": "619 Second Street, Municipal Building",
    "city": "Radford",
    "state": "VA",
    "zip": "24141",
    "hours": "8:30AM - 4:30PM",
    "homepage": "https://www.vacourts.gov/courts/combined/radford/home",
    "judges": [
      "Erin J. DeHart, Presiding Judge",
      "Gerald Eugene Mabe II, Chief Judge",
      "J. D. Bolt",
      "Randal J. Duncan",
      "Gino W. Williams",
      "Stephanie Murray Shortt, Presiding Judge",
      "Bradley G Dalton, Chief Judge",
      "Howard Lee Chitwood",
      "Monica D. Cox",
      "Ryan D. Hamrick"
    ]
  },
  {
    "name": "Rappahannock GD & JDR",
    "locality": "Rappahannock",
    "type": "Combined District",
    "district": "Twentieth Judicial District",
    "clerk": "Donna G Foster",
    "phone": "540/675-5356",
    "fax": "540/675-5357",
    "email": null,
    "address": "P. O. Box 206, 250 Gay Street, Courthouse",
    "city": "Washington",
    "state": "VA",
    "zip": "22747",
    "hours": "8:00AM - 4:00PM",
    "homepage": "https://www.vacourts.gov/courts/combined/rappahannock/home",
    "judges": [
      "Jessica H. Foster, Presiding Judge",
      "Lorrie Ann Sinclair Taylor, Chief Judge",
      "William R. Fitzpatrick",
      "Eric M. Shamis",
      "Melissa N. Cupp, Presiding Judge",
      "Pamela L. Brooks, Chief Judge",
      "Charles Francis Koehler Jr.",
      "Rachel D Robinson"
    ]
  },
  {
    "name": "Richmond JDR",
    "locality": "Richmond",
    "type": "Juvenile & Domestic Relations",
    "district": "Thirteenth Judicial District",
    "clerk": "Felicia Edmonds-Rustin",
    "phone": "804/646-2942",
    "fax": "804/646-2906",
    "email": null,
    "address": "Oliver Hill Courts Building, 1600 Oliver Hill Way, Suite C181",
    "city": "Richmond",
    "state": "VA",
    "zip": "23219",
    "hours": "8:00AM - 4:00PM",
    "homepage": "https://www.vacourts.gov/courts/jdr/richmond/home",
    "judges": [
      "Brice Edward Lambert, Chief Judge, Presiding Judge",
      "Marilynn C. Goss, Presiding Judge",
      "Mary E. Langer, Presiding Judge",
      "Ashley K. Tunner, Presiding Judge",
      "Jacqueline Alexis Fisher-Rizk"
    ]
  },
  {
    "name": "Richmond County GD & JDR",
    "locality": "Richmond County",
    "type": "Combined District",
    "district": "Fifteenth Judicial District",
    "clerk": "Sydonie S. Davis",
    "phone": "804/333-4616",
    "fax": "804/333-3741",
    "email": null,
    "address": "P. O. Box 1000, 201 Court Circle",
    "city": "Warsaw",
    "state": "VA",
    "zip": "22572",
    "hours": "8:00AM - 4:30PM",
    "homepage": "https://www.vacourts.gov/courts/combined/richmond_county/home",
    "judges": [
      "Hugh S. Campbell, Chief Judge",
      "Vincent S. Donoghue",
      "Richard T. McGrath",
      "Angela M. O'Connor",
      "Jane M. Reynolds",
      "Julia H. Sichol",
      "Mayo J. Wilson",
      "Andrea M. Stewart, Chief Judge",
      "John E. Franklin",
      "Julian W. Johnson",
      "Marcel D. Jones",
      "Lisa A. Seward",
      "Frank G Uvanni",
      "Joseph A. Vance IV"
    ]
  },
  {
    "name": "Richmond City GD",
    "locality": "Richmond City",
    "type": "General District",
    "district": "Thirteenth Judicial District",
    "clerk": "Cecelia V. Garner",
    "phone": null,
    "fax": "John Marshall Bldg: Civil: (804)646-8758",
    "email": null,
    "address": "John Marshall Courts Building, 400 N. 9th Street, Building 920 Hull Street",
    "city": "Richmond",
    "state": "VA",
    "zip": "23224",
    "hours": "8:00AM - 4:00PM",
    "homepage": "https://www.vacourts.gov/courts/gd/richmond_city/home",
    "judges": [
      "Ali J. Amirshahi, Presiding Judge",
      "David M. Hicks, Presiding Judge",
      "Matthew T. Paulk, Presiding Judge",
      "Victoria N. Pearson, Presiding Judge",
      "Jennifer E.S. Rosen, Presiding Judge",
      "Mansi J. Shah, Chief Judge"
    ]
  },
  {
    "name": "Roanoke City GD",
    "locality": "Roanoke City",
    "type": "General District",
    "district": "Twenty-third Judicial District",
    "clerk": "Rick S. Kahl",
    "phone": "540/853-2364",
    "phones": {
      "Civil": "540/853-2364"
    },
    "fax": "Civil: 540/853-5826",
    "email": "rkahl@vacourts.gov",
    "address": "315 W. Church Ave. S.W., 2nd Floor",
    "city": "Roanoke",
    "state": "VA",
    "zip": "24016",
    "hours": "8:00AM - 4:00PM",
    "homepage": "https://www.vacourts.gov/courts/gd/roanoke_city/home",
    "judges": [
      "Francis W. Burkart III, Presiding Judge",
      "Scott R. Geddes, Presiding Judge",
      "Jacqueline F. Ward Talevi, Chief Judge",
      "Thomas W. Roe Jr."
    ]
  },
  {
    "name": "Roanoke City JDR",
    "locality": "Roanoke City",
    "type": "Juvenile & Domestic Relations",
    "district": "Twenty-third Judicial District",
    "clerk": "Michelle Ong Esparagoza",
    "phone": "540/853-2389",
    "fax": "540/853-1195",
    "email": null,
    "address": "315 W. Church Ave. S.W., 1st Floor",
    "city": "Roanoke",
    "state": "VA",
    "zip": "24016",
    "hours": "8:00AM - 4:00PM",
    "homepage": "https://www.vacourts.gov/courts/jdr/roanoke_city/home",
    "judges": [
      "Hilary D. Griffith, Presiding Judge",
      "Frank W. Rogers III, Presiding Judge",
      "Adam H. Moseley, Chief Judge",
      "Heather P. Ferguson",
      "Rachel D. Thompson"
    ]
  },
  {
    "name": "Roanoke County GD",
    "locality": "Roanoke County",
    "type": "General District",
    "district": "Twenty-third Judicial District",
    "clerk": "Gretchen S. Preston",
    "phone": "540/387-6168",
    "fax": "540/387-6066",
    "email": null,
    "address": "P. O. Box 997, Courthouse, 305 East Main St.",
    "city": "Salem",
    "state": "VA",
    "zip": "24153",
    "hours": "8:00AM - 4:00PM",
    "homepage": "https://www.vacourts.gov/courts/gd/roanoke_county/home",
    "judges": [
      "Jacqueline F. Ward Talevi, Chief Judge, Presiding Judge",
      "Scott R. Geddes, Presiding Judge",
      "Francis W. Burkart III",
      "Thomas W. Roe Jr."
    ]
  },
  {
    "name": "Roanoke County JDR",
    "locality": "Roanoke County",
    "type": "Juvenile & Domestic Relations",
    "district": "Twenty-third Judicial District",
    "clerk": "Debra Shelor Barbour",
    "phone": "540/387-6160",
    "fax": "540/387-6231",
    "email": "DBarbour@vacourts.gov",
    "address": "Courthouse Building, 305 East Main Street",
    "city": "Salem",
    "state": "VA",
    "zip": "24153",
    "hours": "8:00AM - 4:00PM",
    "homepage": "https://www.vacourts.gov/courts/jdr/roanoke_county/home",
    "judges": [
      "Adam H. Moseley, Chief Judge",
      "Heather P. Ferguson",
      "Hilary D. Griffith",
      "Frank W. Rogers III",
      "Rachel D. Thompson"
    ]
  },
  {
    "name": "Russell GD & JDR",
    "locality": "Russell",
    "type": "Combined District",
    "district": "Twenty-ninth Judicial District",
    "clerk": "Donna Denise Israel Hale",
    "phone": "276/889-8051",
    "phones": {
      "other": "276/889-8051"
    },
    "fax": "276/889-8091",
    "email": null,
    "address": "P. O. Box 65, 83 E. Main Street",
    "city": "Lebanon",
    "state": "VA",
    "zip": "24266",
    "hours": "8:30AM - 4:30PM",
    "homepage": "https://www.vacourts.gov/courts/combined/russell/home",
    "judges": [
      "George Robert Brittain, Chief Judge",
      "Martha P. Ketron, Chief Judge",
      "Michael J. Bush",
      "Laura F. O'Quinn"
    ]
  },
  {
    "name": "Salem GD & JDR",
    "locality": "Salem",
    "type": "Combined District",
    "district": "Twenty-third Judicial District",
    "clerk": "Brandy Ann Duncan",
    "phone": "540/375-3044",
    "fax": "540/375-4024",
    "email": null,
    "address": "2 East Calhoun Street",
    "city": "Salem",
    "state": "VA",
    "zip": "24153",
    "hours": "8:00AM - 4:00PM",
    "homepage": "https://www.vacourts.gov/courts/combined/salem/home",
    "judges": [
      "Jacqueline F. Ward Talevi, Chief Judge, Presiding Judge",
      "Francis W. Burkart III",
      "Scott R. Geddes",
      "Thomas W. Roe Jr.",
      "Adam H. Moseley, Chief Judge",
      "Heather P. Ferguson",
      "Hilary D. Griffith",
      "Frank W. Rogers III",
      "Rachel D. Thompson"
    ]
  },
  {
    "name": "Scott GD & JDR",
    "locality": "Scott",
    "type": "Combined District",
    "district": "Thirtieth Judicial District",
    "clerk": "Robin Renea Tomlinson",
    "phone": "276/386-7341",
    "fax": "276/386-2840",
    "email": null,
    "address": "202 West Jackson Street, Suite 203",
    "city": "Gate City",
    "state": "VA",
    "zip": "24251",
    "hours": "8:00AM - 4:30PM",
    "homepage": "https://www.vacourts.gov/courts/combined/scott/home",
    "judges": [
      "Shawn L Hines, Chief Judge",
      "Andrew L. Johnson",
      "Marcus F. McClung, Chief Judge",
      "Kimberly M. Jenkins",
      "William Ethan Stewart"
    ]
  },
  {
    "name": "Shenandoah GD",
    "locality": "Shenandoah",
    "type": "General District",
    "district": "Twenty-sixth Judicial District",
    "clerk": "William Scott Nicholson",
    "phone": "540/459-6130",
    "fax": "540/459-7279",
    "email": null,
    "address": "215 Mill Road, Suite 128",
    "city": "Woodstock",
    "state": "VA",
    "zip": "22664",
    "hours": "8:00AM - 4:00PM",
    "homepage": "https://www.vacourts.gov/courts/gd/shenandoah/home",
    "judges": [
      "Amy B. Tisinger, Chief Judge, Presiding Judge",
      "Kenneth L. Alger II",
      "Mary Louise Costello Daniel",
      "Louis K. Nagy",
      "Anne M. Williams"
    ]
  },
  {
    "name": "Shenandoah JDR",
    "locality": "Shenandoah",
    "type": "Juvenile & Domestic Relations",
    "district": "Twenty-sixth Judicial District",
    "clerk": "Nikki Wymer Taylor",
    "phone": "540/459-6135",
    "fax": "540/459-8286",
    "email": "NTaylor@vacourts.gov",
    "address": "215 Mill Rd., Suite 228",
    "city": "Woodstock",
    "state": "VA",
    "zip": "22664",
    "hours": "8:30AM - 4:30PM",
    "homepage": "https://www.vacourts.gov/courts/jdr/shenandoah/home",
    "judges": [
      "Chad A. Logan, Presiding Judge",
      "Kimberly Marion Athey, Chief Judge",
      "Elizabeth Kellas Burton",
      "Bryan M Cave",
      "James A. Drown",
      "Rachel E. Figura",
      "Nancie Williams"
    ]
  },
  {
    "name": "Smyth GD",
    "locality": "Smyth",
    "type": "General District",
    "district": "Twenty-eighth Judicial District",
    "clerk": "Emily Bolt Yonts",
    "phone": "276/782-4047",
    "fax": "276/782-4048",
    "email": null,
    "address": "109 West Main Street, Suite 1022",
    "city": "Marion",
    "state": "VA",
    "zip": "24354",
    "hours": "8:30AM - 4:30PM",
    "homepage": "https://www.vacourts.gov/courts/gd/smyth/home",
    "judges": ["Travis B. Lee, Chief Judge", "Robert L. Hobbs", "Suzan E Moore"]
  },
  {
    "name": "Smyth JDR",
    "locality": "Smyth",
    "type": "Juvenile & Domestic Relations",
    "district": "Twenty-eighth Judicial District",
    "clerk": "Stephanie N. Daniels",
    "phone": "276/782-4052",
    "fax": "276/782-4053",
    "email": null,
    "address": "109 West Main Street, Suite 2027",
    "city": "Marion",
    "state": "VA",
    "zip": "24354",
    "hours": "8:00AM - 4:00PM",
    "homepage": "https://www.vacourts.gov/courts/jdr/smyth/home",
    "judges": ["Joseph B. Lyle, Chief Judge", "Richard S. Buddington Jr."]
  },
  {
    "name": "Southampton GD & JDR",
    "locality": "Southampton",
    "type": "Combined District",
    "district": "Fifth Judicial District",
    "clerk": "Belinda J. Jones",
    "phone": "757/653-2673",
    "fax": "757/653-2656",
    "email": null,
    "address": "22350 Main Street, Mailing Address: P O Box 347;",
    "city": "Courtland",
    "state": "VA",
    "zip": "23837",
    "hours": "8:30AM - 4:30PM",
    "homepage": "https://www.vacourts.gov/courts/combined/southampton/home",
    "judges": [
      "Robert C. Barclay IV, Chief Judge",
      "Nicole A. Belote",
      "Vaughn T. Breedlove",
      "James E. Wiser, Chief Judge",
      "Stan D. Clark"
    ]
  },
  {
    "name": "Spotsylvania GD",
    "locality": "Spotsylvania",
    "type": "General District",
    "district": "Fifteenth Judicial District",
    "clerk": "Robin Paige Edenton",
    "phone": "540/507-7680",
    "fax": null,
    "email": null,
    "address": "P. O. Box 339, 9111 Courthouse Road, Judicial Center, 1st Floor",
    "city": "Spotsylvania",
    "state": "VA",
    "zip": "22553",
    "hours": "8:00AM - 4:00PM",
    "homepage": "https://www.vacourts.gov/courts/gd/spotsylvania/home",
    "judges": [
      "Richard T. McGrath, Presiding Judge",
      "Hugh S. Campbell, Chief Judge",
      "Vincent S. Donoghue",
      "Angela M. O'Connor",
      "Jane M. Reynolds",
      "Julia H. Sichol",
      "Mayo J. Wilson"
    ]
  },
  {
    "name": "Spotsylvania JDR",
    "locality": "Spotsylvania",
    "type": "Juvenile & Domestic Relations",
    "district": "Fifteenth Judicial District",
    "clerk": "Susan Ann Klingensmith",
    "phone": "540/507-7676",
    "fax": "540/582-2029",
    "email": null,
    "address": "9113 Courthouse Road, Judicial Center, Building B, 2nd Floor, P. O. Box 157",
    "city": "Spotsylvania",
    "state": "VA",
    "zip": "22553",
    "hours": "8:00AM - 4:00PM",
    "homepage": "https://www.vacourts.gov/courts/jdr/spotsylvania/home",
    "judges": [
      "John E. Franklin, Presiding Judge",
      "Andrea M. Stewart, Chief Judge",
      "Julian W. Johnson",
      "Marcel D. Jones",
      "Lisa A. Seward",
      "Frank G Uvanni",
      "Joseph A. Vance IV"
    ]
  },
  {
    "name": "Stafford GD",
    "locality": "Stafford",
    "type": "General District",
    "district": "Fifteenth Judicial District",
    "clerk": "Bonnie Lee Camp",
    "phone": "540/658-8935",
    "fax": "540/658-4834",
    "email": null,
    "address": "P. O. Box 940, 1300 Courthouse Road, The Judicial Center",
    "city": "Stafford",
    "state": "VA",
    "zip": "22555",
    "hours": "8:00AM - 4:00PM",
    "homepage": "https://www.vacourts.gov/courts/gd/stafford/home",
    "judges": [
      "Vincent S. Donoghue, Presiding Judge",
      "Hugh S. Campbell, Chief Judge",
      "Richard T. McGrath",
      "Angela M. O'Connor",
      "Jane M. Reynolds",
      "Julia H. Sichol",
      "Mayo J. Wilson"
    ]
  },
  {
    "name": "Stafford JDR",
    "locality": "Stafford",
    "type": "Juvenile & Domestic Relations",
    "district": "Fifteenth Judicial District",
    "clerk": "James Bruce Thompson",
    "phone": "540/658-8775",
    "fax": "540/658-4640",
    "email": null,
    "address": "1300 Courthouse Road, Mailing Address: P.O. Box",
    "city": "400, Stafford",
    "state": "VA",
    "zip": "22555-0400",
    "hours": "8:00AM - 4:00PM",
    "homepage": "https://www.vacourts.gov/courts/jdr/stafford/home",
    "judges": [
      "Andrea M. Stewart, Chief Judge, Presiding Judge",
      "Julian W. Johnson, Presiding Judge",
      "Marcel D. Jones, Presiding Judge",
      "John E. Franklin",
      "Lisa A. Seward",
      "Frank G Uvanni",
      "Joseph A. Vance IV"
    ]
  },
  {
    "name": "Staunton GD",
    "locality": "Staunton",
    "type": "General District",
    "district": "Twenty-fifth Judicial District",
    "clerk": "Amanda M Knighting",
    "phone": "540/332-3878",
    "fax": "540/332-3985",
    "email": null,
    "address": "113 E. Beverley St., 1st Floor",
    "city": "Staunton",
    "state": "VA",
    "zip": "24401",
    "hours": "8:30AM - 4:30PM",
    "homepage": "https://www.vacourts.gov/courts/gd/staunton/home",
    "judges": [
      "Christopher M. Billias, Chief Judge",
      "Robin J. Mayer",
      "Rupen R. Shah",
      "David Browning Spigle"
    ]
  },
  {
    "name": "Staunton JDR",
    "locality": "Staunton",
    "type": "Juvenile & Domestic Relations",
    "district": "Twenty-fifth Judicial District",
    "clerk": "Colin James Clark",
    "phone": "540/332-3871",
    "fax": "540/332-3872",
    "email": null,
    "address": "2020 West Beverley St, 1st Floor",
    "city": "Staunton",
    "state": "VA",
    "zip": "24401",
    "hours": "8:30AM - 4:30PM",
    "homepage": "https://www.vacourts.gov/courts/jdr/staunton/home",
    "judges": [
      "Susan B. Read, Presiding Judge",
      "Linda Schorsch Jones, Chief Judge",
      "Robert C. Hagan Jr.",
      "Lethia C. Hammond",
      "Correy R. Smith"
    ]
  },
  {
    "name": "Suffolk GD",
    "locality": "Suffolk",
    "type": "General District",
    "district": "Fifth Judicial District",
    "clerk": "Annie Rebecca Gayle",
    "phone": "757/514-4822",
    "fax": "757/514-7783",
    "email": null,
    "address": "150 North Main Street",
    "city": "Suffolk",
    "state": "VA",
    "zip": "23434",
    "hours": "8:00AM - 4:00PM",
    "homepage": "https://www.vacourts.gov/courts/gd/suffolk/home",
    "judges": [
      "Robert C. Barclay IV, Chief Judge",
      "Nicole A. Belote",
      "Vaughn T. Breedlove"
    ]
  },
  {
    "name": "Suffolk JDR",
    "locality": "Suffolk",
    "type": "Juvenile & Domestic Relations",
    "district": "Fifth Judicial District",
    "clerk": "Sandra K. Perrin",
    "phone": "757/514-7790",
    "fax": "757/514-4841",
    "email": "SPerrin@vacourts.gov",
    "address": "150 North Main Street, 2nd Floor",
    "city": "Suffolk",
    "state": "VA",
    "zip": "23434",
    "hours": "8:00AM - 4:00PM",
    "homepage": "https://www.vacourts.gov/courts/jdr/suffolk/home",
    "judges": ["James E. Wiser, Chief Judge", "Stan D. Clark"]
  },
  {
    "name": "Surry GD & JDR",
    "locality": "Surry",
    "type": "Combined District",
    "district": "Sixth Judicial District",
    "clerk": "Janeen L Jackson",
    "phone": "757/294-5201",
    "fax": "757/294-0312",
    "email": null,
    "address": "P. O. Box 332, Surry Government Center, 45 School Street",
    "city": "Surry",
    "state": "VA",
    "zip": "23883",
    "hours": "8:00AM - 4:00PM",
    "homepage": "https://www.vacourts.gov/courts/combined/surry/home",
    "judges": [
      "Elbert D. Mumphery, Presiding Judge",
      "Lyndia P. Ramsey, Chief Judge",
      "Peter D. Eliades",
      "William S Newsome",
      "Patricia T Watson",
      "Christopher B. Ackerman, Presiding Judge",
      "Jacqueline R. Waymack, Chief Judge",
      "Robert John Fierro Jr."
    ]
  },
  {
    "name": "Sussex GD & JDR",
    "locality": "Sussex",
    "type": "Combined District",
    "district": "Sixth Judicial District",
    "clerk": "Faye Parham Yelverton",
    "phone": "434/246-1096",
    "fax": "434/246-6604",
    "email": null,
    "address": "P. O. Box 1315, 15098 Courthouse Road",
    "city": "Sussex",
    "state": "VA",
    "zip": "23884",
    "hours": "8:00AM - 4:00PM",
    "homepage": "https://www.vacourts.gov/courts/combined/sussex/home",
    "judges": [
      "Elbert D. Mumphery, Presiding Judge",
      "Lyndia P. Ramsey, Chief Judge",
      "Peter D. Eliades",
      "William S Newsome",
      "Patricia T Watson",
      "Christopher B. Ackerman, Presiding Judge",
      "Jacqueline R. Waymack, Chief Judge",
      "Robert John Fierro Jr."
    ]
  },
  {
    "name": "Tazewell GD",
    "locality": "Tazewell",
    "type": "General District",
    "district": "Twenty-ninth Judicial District",
    "clerk": "Crystal Denise Crouse",
    "phone": "276/385-1563",
    "fax": "276/988-6202",
    "email": null,
    "address": "135 Court Street, Suite 300",
    "city": "Tazewell",
    "state": "VA",
    "zip": "24651",
    "hours": "8:30AM - 4:30PM",
    "homepage": "https://www.vacourts.gov/courts/gd/tazewell/home",
    "judges": ["George Robert Brittain, Chief Judge"]
  },
  {
    "name": "Tazewell JDR",
    "locality": "Tazewell",
    "type": "Juvenile & Domestic Relations",
    "district": "Twenty-ninth Judicial District",
    "clerk": "Judith Karen Allison",
    "phone": "276-385-1290",
    "fax": "276/988-3726",
    "email": "kallison@vacourts.gov",
    "address": "135 Court Street",
    "city": "Tazewell",
    "state": "VA",
    "zip": "24651",
    "hours": "8:30AM - 4:30PM",
    "homepage": "https://www.vacourts.gov/courts/jdr/tazewell/home",
    "judges": [
      "Martha P. Ketron, Chief Judge",
      "Michael J. Bush",
      "Laura F. O'Quinn"
    ]
  },
  {
    "name": "Virginia Beach GD",
    "locality": "Virginia Beach",
    "type": "General District",
    "district": "Second Judicial District",
    "clerk": "Pamela J. Pringle",
    "phone": "757/385-8531",
    "fax": "Judges: (757) 385-5672",
    "email": null,
    "address": "2425 Nimmo Parkway",
    "city": "Virginia Beach",
    "state": "VA",
    "zip": "23456",
    "hours": "8:00AM - 4:00PM",
    "homepage": "https://www.vacourts.gov/courts/gd/virginia_beach/home",
    "judges": [
      "Sandra S. Menago, Chief Judge, Presiding Judge",
      "Wanda J. Cooper, Presiding Judge",
      "Elizabeth S. Foster, Presiding Judge",
      "Vivian F. Henderson, Presiding Judge",
      "Daniel Roger Lahne, Presiding Judge",
      "Paul David Merullo, Presiding Judge"
    ]
  },
  {
    "name": "Virginia Beach JDR",
    "locality": "Virginia Beach",
    "type": "Juvenile & Domestic Relations",
    "district": "Second Judicial District",
    "clerk": "Amy K. Burnham",
    "phone": "757/385-4391",
    "fax": "757/385-5683",
    "email": null,
    "address": "2425 Nimmo Parkway, Building 10, Municipal Center",
    "city": "Virginia Beach",
    "state": "VA",
    "zip": "23456",
    "hours": "8:00AM - 4:00PM",
    "homepage": "https://www.vacourts.gov/courts/jdr/virginia_beach/home",
    "judges": [
      "Timothy J. Quick, Chief Judge, Presiding Judge",
      "Adrianne L. Bennett, Presiding Judge",
      "Cheshire I'Anson Eveleigh, Presiding Judge",
      "Philip C Hollowell, Presiding Judge",
      "James Patrick Normile IV, Presiding Judge",
      "Regis N. Rice, Presiding Judge",
      "Jennifer B. Shupert, Presiding Judge"
    ]
  },
  {
    "name": "Warren GD",
    "locality": "Warren",
    "type": "General District",
    "district": "Twenty-sixth Judicial District",
    "clerk": "Lindsay Marie Cooper",
    "phone": "540/635-2335",
    "fax": "540/636-8233",
    "email": null,
    "address": "Courthouse Square, One East Main St.",
    "city": "Front Royal",
    "state": "VA",
    "zip": "22630",
    "hours": "8:15AM - 4:15PM",
    "homepage": "https://www.vacourts.gov/courts/gd/warren/home",
    "judges": [
      "Amy B. Tisinger, Chief Judge",
      "Kenneth L. Alger II",
      "Mary Louise Costello Daniel",
      "Louis K. Nagy",
      "Anne M. Williams"
    ]
  },
  {
    "name": "Warren JDR",
    "locality": "Warren",
    "type": "Juvenile & Domestic Relations",
    "district": "Twenty-sixth Judicial District",
    "clerk": "Shanna Lane Henry",
    "phone": "540/635-4107",
    "fax": "540/635-8207",
    "email": null,
    "address": "1 East Main Street, Courthouse, 2nd Floor",
    "city": "Front Royal",
    "state": "VA",
    "zip": "22630",
    "hours": "8:00AM - 4:30PM",
    "homepage": "https://www.vacourts.gov/courts/jdr/warren/home",
    "judges": [
      "Kimberly Marion Athey, Chief Judge",
      "Elizabeth Kellas Burton",
      "Bryan M Cave",
      "James A. Drown",
      "Rachel E. Figura",
      "Chad A. Logan",
      "Nancie Williams"
    ]
  },
  {
    "name": "Washington GD",
    "locality": "Washington",
    "type": "General District",
    "district": "Twenty-eighth Judicial District",
    "clerk": "Sara Kathleen Keen",
    "phone": null,
    "fax": "276/676-3136",
    "email": null,
    "address": "191 East Main Street",
    "city": "Abingdon",
    "state": "VA",
    "zip": "24210",
    "hours": "8:00AM - 4:00PM",
    "homepage": "https://www.vacourts.gov/courts/gd/washington/home",
    "judges": [
      "Travis B. Lee, Chief Judge, Presiding Judge",
      "Robert L. Hobbs, Presiding Judge",
      "Suzan E Moore"
    ]
  },
  {
    "name": "Washington JDR",
    "locality": "Washington",
    "type": "Juvenile & Domestic Relations",
    "district": "Twenty-eighth Judicial District",
    "clerk": "Joshua Dale Osborne",
    "phone": "276/676-6282",
    "fax": "276/676-6217",
    "email": "jdosborne@vacourts.gov",
    "address": "Courthouse, 187 East Main Street",
    "city": "Abingdon",
    "state": "VA",
    "zip": "24210",
    "hours": "8:00AM - 4:00PM",
    "homepage": "https://www.vacourts.gov/courts/jdr/washington/home",
    "judges": [
      "Joseph B. Lyle, Chief Judge, Presiding Judge",
      "Richard S. Buddington Jr."
    ]
  },
  {
    "name": "Waynesboro GD",
    "locality": "Waynesboro",
    "type": "General District",
    "district": "Twenty-fifth Judicial District",
    "clerk": "Jacqueline Michelle Balderson",
    "phone": "540/942-6636",
    "phones": {
      "other": "540/942-6674"
    },
    "fax": "540/942-6666",
    "email": null,
    "address": "250 South Wayne Avenue, Suite 100, Physical address: 237 Market",
    "city": "Avenue, Waynesboro",
    "state": "VA",
    "zip": "22980",
    "hours": "8:00AM - 4:00PM",
    "homepage": "https://www.vacourts.gov/courts/gd/waynesboro/home",
    "judges": [
      "Christopher M. Billias, Chief Judge",
      "Robin J. Mayer",
      "Rupen R. Shah",
      "David Browning Spigle"
    ]
  },
  {
    "name": "Waynesboro JDR",
    "locality": "Waynesboro",
    "type": "Juvenile & Domestic Relations",
    "district": "Twenty-fifth Judicial District",
    "clerk": "Christy Dawn Hostetter",
    "phone": "540/942-6633",
    "fax": "540/942-6793",
    "email": "chostetter@vacourts.gov",
    "address": "237 Market Avenue, Suite 202",
    "city": "Waynesboro",
    "state": "VA",
    "zip": "22980",
    "hours": "8:00AM - 4:00PM",
    "homepage": "https://www.vacourts.gov/courts/jdr/waynesboro/home",
    "judges": [
      "Correy R. Smith, Presiding Judge",
      "Linda Schorsch Jones, Chief Judge",
      "Robert C. Hagan Jr.",
      "Lethia C. Hammond",
      "Susan B. Read"
    ]
  },
  {
    "name": "Westmoreland GD",
    "locality": "Westmoreland",
    "type": "General District",
    "district": "Fifteenth Judicial District",
    "clerk": "Laura Standbridge Morgan",
    "phone": "804/493-0105",
    "fax": "804/493-1203",
    "email": null,
    "address": "175 Polk Street, PO Box 688",
    "city": "Montross",
    "state": "VA",
    "zip": "22520",
    "hours": "8:00AM - 4:30PM",
    "homepage": "https://www.vacourts.gov/courts/gd/westmoreland/home",
    "judges": [
      "Hugh S. Campbell, Chief Judge",
      "Vincent S. Donoghue",
      "Richard T. McGrath",
      "Angela M. O'Connor",
      "Jane M. Reynolds",
      "Julia H. Sichol",
      "Mayo J. Wilson"
    ]
  },
  {
    "name": "Westmoreland JDR",
    "locality": "Westmoreland",
    "type": "Juvenile & Domestic Relations",
    "district": "Fifteenth Judicial District",
    "clerk": "Christina Anne Viviers",
    "phone": "804/493-0117",
    "fax": "804/493-0173",
    "email": "CViviers@vacourts.gov",
    "address": "175 Polk St.",
    "city": "Montross",
    "state": "VA",
    "zip": "22520",
    "hours": "8:30AM - 5:00PM",
    "homepage": "https://www.vacourts.gov/courts/jdr/westmoreland/home",
    "judges": [
      "Andrea M. Stewart, Chief Judge",
      "John E. Franklin",
      "Julian W. Johnson",
      "Marcel D. Jones",
      "Lisa A. Seward",
      "Frank G Uvanni",
      "Joseph A. Vance IV"
    ]
  },
  {
    "name": "Williamsburg/James City Co. GD",
    "locality": "Williamsburg/James City Co.",
    "type": "General District",
    "district": "Ninth Judicial District",
    "clerk": "Edwina T. Millerleile",
    "phone": "757/564-2400",
    "fax": "757/564-2410",
    "email": null,
    "address": "5201 Monticello Avenue, Suite 2",
    "city": "Williamsburg",
    "state": "VA",
    "zip": "23188",
    "hours": "8:00AM - 4:00PM",
    "homepage": "https://www.vacourts.gov/courts/gd/Williamsburg~James_City_County/home",
    "judges": [
      "Matthew D. Danielson, Presiding Judge",
      "Wade A. Bowie, Chief Judge",
      "James Anderson Mullins",
      "Stephanie M. Revere"
    ]
  },
  {
    "name": "Williamsburg/James City Co. JDR",
    "locality": "Williamsburg/James City Co.",
    "type": "Juvenile & Domestic Relations",
    "district": "Ninth Judicial District",
    "clerk": "Shea S Bruno",
    "phone": "757/564-2200",
    "fax": "757/564-2343",
    "email": null,
    "address": "5201 Monticello Avenue, Suite 3",
    "city": "Williamsburg",
    "state": "VA",
    "zip": "23188",
    "hours": "8:00AM - 4:00PM",
    "homepage": "https://www.vacourts.gov/courts/jdr/Williamsburg~James_City_County/home",
    "judges": [
      "Matthew Rush Kite, Chief Judge",
      "Richard G. Collins",
      "Mara M. Matthews",
      "Brian J. Smalls"
    ]
  },
  {
    "name": "Winchester/Frederick GD",
    "locality": "Winchester/Frederick",
    "type": "General District",
    "district": "Twenty-sixth Judicial District",
    "clerk": "Tamara L. Heishman",
    "phone": "540/722-7208",
    "fax": "540/722-1063",
    "email": null,
    "address": "Judicial Center, 5 North Kent Street",
    "city": "Winchester",
    "state": "VA",
    "zip": "22601",
    "hours": "8:00AM - 4:00PM",
    "homepage": "https://www.vacourts.gov/courts/gd/Frederick~Winchester/home",
    "judges": [
      "Amy B. Tisinger, Chief Judge",
      "Kenneth L. Alger II",
      "Mary Louise Costello Daniel",
      "Louis K. Nagy",
      "Anne M. Williams"
    ]
  },
  {
    "name": "Winchester/Frederick JDR",
    "locality": "Winchester/Frederick",
    "type": "Juvenile & Domestic Relations",
    "district": "Twenty-sixth Judicial District",
    "clerk": "Lisa M. Eaton",
    "phone": "540/667-5770",
    "fax": "540/723-8886",
    "email": null,
    "address": "Judicial Center, 5 North Kent Street",
    "city": "Winchester",
    "state": "VA",
    "zip": "22601",
    "hours": "8:00AM - 4:00PM",
    "homepage": "https://www.vacourts.gov/courts/jdr/Winchester/home",
    "judges": [
      "Kimberly Marion Athey, Chief Judge, Presiding Judge",
      "Elizabeth Kellas Burton, Presiding Judge",
      "Bryan M Cave",
      "James A. Drown",
      "Rachel E. Figura",
      "Chad A. Logan",
      "Nancie Williams"
    ]
  },
  {
    "name": "Wise/Norton JDR",
    "locality": "Wise/Norton",
    "type": "Juvenile & Domestic Relations",
    "district": "Thirtieth Judicial District",
    "clerk": "Susannah C Wells",
    "phone": "276/328-4486",
    "fax": "276/328-7067",
    "email": "SWells@vacourts.gov",
    "address": "P. O. Box 2320, Physical Address: 206 East, Main Street, 1st Floor, Wise,",
    "city": "Wise",
    "state": "VA",
    "zip": "24293",
    "hours": "8:00AM - 4:00PM",
    "homepage": "https://www.vacourts.gov/courts/jdr/wise/home",
    "judges": [
      "Marcus F. McClung, Chief Judge",
      "Kimberly M. Jenkins",
      "William Ethan Stewart"
    ]
  },
  {
    "name": "Wise/Norton GD",
    "locality": "Wise/Norton",
    "type": "General District",
    "district": "Thirtieth Judicial District",
    "clerk": "Sherry L. Bishop",
    "phone": "276/328-3426",
    "fax": "276/328-4576",
    "email": null,
    "address": "206 East Main Street, P.O. Box 829",
    "city": "Wise",
    "state": "VA",
    "zip": "24293",
    "hours": "8:00AM - 4:00PM",
    "homepage": "https://www.vacourts.gov/courts/gd/Wise~Norton/home",
    "judges": ["Shawn L Hines, Chief Judge", "Andrew L. Johnson"]
  },
  {
    "name": "Wythe GD",
    "locality": "Wythe",
    "type": "General District",
    "district": "Twenty-seventh Judicial District",
    "clerk": "Susan Pike",
    "phone": "276-223-6075",
    "fax": "276/223-6087",
    "email": null,
    "address": "245 South 4th Street, Suite 205",
    "city": "Wytheville",
    "state": "VA",
    "zip": "24382",
    "hours": "8:00AM - 4:00PM",
    "homepage": "https://www.vacourts.gov/courts/gd/wythe/home",
    "judges": [
      "Gerald Eugene Mabe II, Chief Judge",
      "J. D. Bolt",
      "Erin J. DeHart",
      "Randal J. Duncan",
      "Gino W. Williams"
    ]
  },
  {
    "name": "Wythe JDR",
    "locality": "Wythe",
    "type": "Juvenile & Domestic Relations",
    "district": "Twenty-seventh Judicial District",
    "clerk": "Karen L. Akers",
    "phone": "276/223-6080",
    "fax": "276/223-6094",
    "email": "klakers@vacourts.gov",
    "address": "225 South 4th Street, Suite 204",
    "city": "Wytheville",
    "state": "VA",
    "zip": "24382",
    "hours": "8:00AM - 4:30PM",
    "homepage": "https://www.vacourts.gov/courts/jdr/wythe/home",
    "judges": [
      "Bradley G Dalton, Chief Judge, Presiding Judge",
      "Howard Lee Chitwood",
      "Monica D. Cox",
      "Ryan D. Hamrick",
      "Stephanie Murray Shortt"
    ]
  },
  {
    "name": "York GD",
    "locality": "York",
    "type": "General District",
    "district": "Ninth Judicial District",
    "clerk": "Brooke Reed Shores",
    "phone": "757/890-3450",
    "fax": "757/890-3459",
    "email": null,
    "address": "P. O. Box 316, 300 Ballard Street",
    "city": "Yorktown",
    "state": "VA",
    "zip": "23690",
    "hours": "8:00AM - 4:00PM",
    "homepage": "https://www.vacourts.gov/courts/gd/york/home",
    "judges": [
      "James Anderson Mullins, Presiding Judge",
      "Wade A. Bowie, Chief Judge",
      "Matthew D. Danielson",
      "Stephanie M. Revere"
    ]
  },
  {
    "name": "York JDR",
    "locality": "York",
    "type": "Juvenile & Domestic Relations",
    "district": "Ninth Judicial District",
    "clerk": "Margienette J. Whitfield",
    "phone": "757/890-3470",
    "fax": "757/890-3479",
    "email": null,
    "address": "P. O. Box 357, 300 Ballard Street",
    "city": "Yorktown",
    "state": "VA",
    "zip": "23690",
    "hours": "8:00AM - 4:00PM",
    "homepage": "https://www.vacourts.gov/courts/jdr/york/home",
    "judges": [
      "Matthew Rush Kite, Chief Judge",
      "Richard G. Collins",
      "Mara M. Matthews",
      "Brian J. Smalls"
    ]
  }
]
